{
"type": "FeatureCollection",
"name": "points_2020",
"features": [
{ "type": "Feature", "properties": { "ID": 75420007, "NAME": "MEDSTAR- GEORGETOWN UNIVERSITY HOSPITAL", "TYPE": "GENERAL ACUTE CARE", "SOURCE": "http://doh.dc.gov/node/173192", "VAL_METHOD": "IMAGERY/OTHER", "VAL_DATE": "2015-01-19", "BEDS": 609, "TRAUMA": "NOT AVAILABLE", "HELIPAD": "Y" }, "geometry": { "type": "Point", "coordinates": [ -77.075255, 38.911959 ] } },
{ "type": "Feature", "properties": { "ID": 12142728, "NAME": "T J HEALTH COLUMBIA", "TYPE": "GENERAL ACUTE CARE", "SOURCE": "https://chfs.ky.gov/agencies/os/oig/dhc/documents/directories/hospital_directory.pdf", "VAL_METHOD": "IMAGERY", "VAL_DATE": "2014-02-09", "BEDS": 74, "TRAUMA": "NOT AVAILABLE", "HELIPAD": "Y" }, "geometry": { "type": "Point", "coordinates": [ -85.294546, 37.096642 ] } },
{ "type": "Feature", "properties": { "ID": 1042539, "NAME": "CASEY COUNTY HOSPITAL", "TYPE": "CRITICAL ACCESS", "SOURCE": "https://chfs.ky.gov/agencies/os/oig/dhc/documents/directories/hospital_directory.pdf", "VAL_METHOD": "IMAGERY", "VAL_DATE": "2014-02-09", "BEDS": 24, "TRAUMA": "NOT AVAILABLE", "HELIPAD": "Y" }, "geometry": { "type": "Point", "coordinates": [ -84.933172, 37.317717 ] } },
{ "type": "Feature", "properties": { "ID": 5240336, "NAME": "MARCUM AND WALLACE MEMORIAL HOSPITAL", "TYPE": "CRITICAL ACCESS", "SOURCE": "https://chfs.ky.gov/agencies/os/oig/dhc/documents/directories/hospital_directory.pdf", "VAL_METHOD": "IMAGERY", "VAL_DATE": "2014-02-09", "BEDS": 25, "TRAUMA": "LEVEL IV", "HELIPAD": "Y" }, "geometry": { "type": "Point", "coordinates": [ -83.977277, 37.706197 ] } },
{ "type": "Feature", "properties": { "ID": 3641653, "NAME": "HIGHLANDS REGIONAL MEDICAL CENTER", "TYPE": "GENERAL ACUTE CARE", "SOURCE": "https://chfs.ky.gov/agencies/os/oig/dhc/documents/directories/hospital_directory.pdf", "VAL_METHOD": "IMAGERY", "VAL_DATE": "2014-02-09", "BEDS": 174, "TRAUMA": "NOT AVAILABLE", "HELIPAD": "Y" }, "geometry": { "type": "Point", "coordinates": [ -82.76732, 37.72901 ] } },
{ "type": "Feature", "properties": { "ID": 9440215, "NAME": "UOFL HEALTH - MARY AND ELIZABETH HOSPITAL", "TYPE": "GENERAL ACUTE CARE", "SOURCE": "https://chfs.ky.gov/agencies/os/oig/dhc/documents/directories/hospital_directory.pdf", "VAL_METHOD": "IMAGERY", "VAL_DATE": "2014-02-09", "BEDS": 298, "TRAUMA": "NOT AVAILABLE", "HELIPAD": "N" }, "geometry": { "type": "Point", "coordinates": [ -85.793916, 38.178264 ] } },
{ "type": "Feature", "properties": { "ID": 240031, "NAME": "BAPTIST HEALTH LA GRANGE", "TYPE": "GENERAL ACUTE CARE", "SOURCE": "https://chfs.ky.gov/agencies/os/oig/dhc/documents/directories/hospital_directory.pdf", "VAL_METHOD": "IMAGERY", "VAL_DATE": "2014-02-09", "BEDS": 90, "TRAUMA": "NOT AVAILABLE", "HELIPAD": "Y" }, "geometry": { "type": "Point", "coordinates": [ -85.376065, 38.39489 ] } },
{ "type": "Feature", "properties": { "ID": 12119124, "NAME": "EASTERN REGIONAL MEDICAL CENTER", "TYPE": "GENERAL ACUTE CARE", "SOURCE": "http://sais.health.pa.gov/commonpoc/content/publiccommonpoc/normalsearch.asp", "VAL_METHOD": "IMAGERY", "VAL_DATE": "2014-01-08", "BEDS": 58, "TRAUMA": "NOT AVAILABLE", "HELIPAD": "N" }, "geometry": { "type": "Point", "coordinates": [ -75.099464, 40.018813 ] } },
{ "type": "Feature", "properties": { "ID": 13619107, "NAME": "THOMAS JEFFERSON UNIVERSITY HOSPITAL", "TYPE": "GENERAL ACUTE CARE", "SOURCE": "http://sais.health.pa.gov/commonpoc/content/publiccommonpoc/normalsearch.asp", "VAL_METHOD": "IMAGERY", "VAL_DATE": "2014-02-09", "BEDS": 957, "TRAUMA": "LEVEL I", "HELIPAD": "Y" }, "geometry": { "type": "Point", "coordinates": [ -75.157946, 39.949708 ] } },
{ "type": "Feature", "properties": { "ID": 20819104, "NAME": "PENN PRESBYTERIAN MEDICAL CENTER", "TYPE": "GENERAL ACUTE CARE", "SOURCE": "http://sais.health.pa.gov/commonpoc/content/publiccommonpoc/normalsearch.asp", "VAL_METHOD": "IMAGERY", "VAL_DATE": "2014-02-09", "BEDS": 305, "TRAUMA": "LEVEL I", "HELIPAD": "Y" }, "geometry": { "type": "Point", "coordinates": [ -75.199264, 39.958872 ] } },
{ "type": "Feature", "properties": { "ID": 6017822, "NAME": "GEISINGER MEDICAL CENTER", "TYPE": "GENERAL ACUTE CARE", "SOURCE": "http://sais.health.pa.gov/commonpoc/content/publiccommonpoc/normalsearch.asp", "VAL_METHOD": "IMAGERY", "VAL_DATE": "2014-02-09", "BEDS": 404, "TRAUMA": "LEVEL I", "HELIPAD": "N" }, "geometry": { "type": "Point", "coordinates": [ -76.605256, 40.968145 ] } },
{ "type": "Feature", "properties": { "ID": 522835, "NAME": "PAGE MEMORIAL HOSPITAL", "TYPE": "CRITICAL ACCESS", "SOURCE": "http://www.vhi.org", "VAL_METHOD": "IMAGERY", "VAL_DATE": "2014-02-09", "BEDS": 25, "TRAUMA": "NOT AVAILABLE", "HELIPAD": "Y" }, "geometry": { "type": "Point", "coordinates": [ -78.468518, 38.66325 ] } },
{ "type": "Feature", "properties": { "ID": 1021205, "NAME": "KENNEDY KREIGER INSTITUTE", "TYPE": "GENERAL ACUTE CARE", "SOURCE": "http://dhmh.maryland.gov/ohcq/pages/licensee-directory.aspx", "VAL_METHOD": "IMAGERY", "VAL_DATE": "2014-02-09", "BEDS": 70, "TRAUMA": "NOT AVAILABLE", "HELIPAD": "Y" }, "geometry": { "type": "Point", "coordinates": [ -76.592819, 39.299281 ] } },
{ "type": "Feature", "properties": { "ID": 2321202, "NAME": "MERCY MEDICAL CENTER", "TYPE": "GENERAL ACUTE CARE", "SOURCE": "http://dhmh.maryland.gov/ohcq/pages/licensee-directory.aspx", "VAL_METHOD": "IMAGERY", "VAL_DATE": "2014-02-09", "BEDS": 281, "TRAUMA": "NOT AVAILABLE", "HELIPAD": "N" }, "geometry": { "type": "Point", "coordinates": [ -76.612884, 39.292922 ] } },
{ "type": "Feature", "properties": { "ID": 3721215, "NAME": "SINAI HOSPITAL OF BALTIMORE", "TYPE": "GENERAL ACUTE CARE", "SOURCE": "http://dhmh.maryland.gov/ohcq/pages/licensee-directory.aspx", "VAL_METHOD": "IMAGERY", "VAL_DATE": "2014-02-09", "BEDS": 467, "TRAUMA": "LEVEL II", "HELIPAD": "Y" }, "geometry": { "type": "Point", "coordinates": [ -76.66209, 39.352303 ] } },
{ "type": "Feature", "properties": { "ID": 4121201, "NAME": "UNIVERSITY OF MARYLAND MEDICAL CENTER", "TYPE": "GENERAL ACUTE CARE", "SOURCE": "http://dhmh.maryland.gov/ohcq/pages/licensee-directory.aspx", "VAL_METHOD": "IMAGERY", "VAL_DATE": "2014-02-09", "BEDS": 800, "TRAUMA": "PARC", "HELIPAD": "Y" }, "geometry": { "type": "Point", "coordinates": [ -76.624926, 39.287909 ] } },
{ "type": "Feature", "properties": { "ID": 4821224, "NAME": "JOHNS HOPKINS BAYVIEW MEDICAL CENTER", "TYPE": "GENERAL ACUTE CARE", "SOURCE": "http://dhmh.maryland.gov/ohcq/pages/licensee-directory.aspx", "VAL_METHOD": "IMAGERY/OTHER", "VAL_DATE": "2014-02-09", "BEDS": 477, "TRAUMA": "LEVEL II", "HELIPAD": "Y" }, "geometry": { "type": "Point", "coordinates": [ -76.546778, 39.290679 ] } },
{ "type": "Feature", "properties": { "ID": 9140504, "NAME": "SAINT JOSEPH HOSPITAL", "TYPE": "GENERAL ACUTE CARE", "SOURCE": "https://chfs.ky.gov/agencies/os/oig/dhc/documents/directories/hospital_directory.pdf", "VAL_METHOD": "IMAGERY", "VAL_DATE": "2014-02-09", "BEDS": 433, "TRAUMA": "NOT AVAILABLE", "HELIPAD": "Y" }, "geometry": { "type": "Point", "coordinates": [ -84.523299, 38.03234 ] } },
{ "type": "Feature", "properties": { "ID": 11442754, "NAME": "TWIN LAKES REGIONAL MEDICAL CENTER", "TYPE": "GENERAL ACUTE CARE", "SOURCE": "https://chfs.ky.gov/agencies/os/oig/dhc/documents/directories/hospital_directory.pdf", "VAL_METHOD": "IMAGERY", "VAL_DATE": "2014-02-09", "BEDS": 75, "TRAUMA": "LEVEL IV", "HELIPAD": "Y" }, "geometry": { "type": "Point", "coordinates": [ -86.288593, 37.472515 ] } },
{ "type": "Feature", "properties": { "ID": 7341101, "NAME": "OUR LADY OF BELLEFONTE HOSPITAL", "TYPE": "GENERAL ACUTE CARE", "SOURCE": "https://chfs.ky.gov/agencies/os/oig/dhc/documents/directories/hospital_directory.pdf", "VAL_METHOD": "IMAGERY", "VAL_DATE": "2014-02-09", "BEDS": 190, "TRAUMA": "NOT AVAILABLE", "HELIPAD": "N" }, "geometry": { "type": "Point", "coordinates": [ -82.692617, 38.508454 ] } },
{ "type": "Feature", "properties": { "ID": 3521742, "NAME": "MERITUS MEDICAL CENTER", "TYPE": "GENERAL ACUTE CARE", "SOURCE": "http://dhmh.maryland.gov/ohcq/pages/licensee-directory.aspx", "VAL_METHOD": "IMAGERY", "VAL_DATE": "2014-02-09", "BEDS": 247, "TRAUMA": "LEVEL III", "HELIPAD": "Y" }, "geometry": { "type": "Point", "coordinates": [ -77.682563, 39.622193 ] } },
{ "type": "Feature", "properties": { "ID": 10942101, "NAME": "THE MEDICAL CENTER AT BOWLING GREEN", "TYPE": "GENERAL ACUTE CARE", "SOURCE": "https://chfs.ky.gov/agencies/os/oig/dhc/documents/directories/hospital_directory.pdf", "VAL_METHOD": "IMAGERY/OTHER", "VAL_DATE": "2014-03-11", "BEDS": 337, "TRAUMA": "NOT AVAILABLE", "HELIPAD": "Y" }, "geometry": { "type": "Point", "coordinates": [ -86.429759, 36.995972 ] } },
{ "type": "Feature", "properties": { "ID": 2040484, "NAME": "EPHRAIM MCDOWELL FORT LOGAN HOSPITAL", "TYPE": "CRITICAL ACCESS", "SOURCE": "https://chfs.ky.gov/agencies/os/oig/dhc/documents/directories/hospital_directory.pdf", "VAL_METHOD": "IMAGERY", "VAL_DATE": "2014-02-09", "BEDS": 25, "TRAUMA": "LEVEL IV", "HELIPAD": "Y" }, "geometry": { "type": "Point", "coordinates": [ -84.653037, 37.542794 ] } },
{ "type": "Feature", "properties": { "ID": 4942078, "NAME": "LIVINGSTON HOSPITAL AND HEALTHCARE SERVICES", "TYPE": "CRITICAL ACCESS", "SOURCE": "https://chfs.ky.gov/agencies/os/oig/dhc/documents/directories/hospital_directory.pdf", "VAL_METHOD": "IMAGERY", "VAL_DATE": "2014-02-09", "BEDS": 25, "TRAUMA": "LEVEL IV", "HELIPAD": "Y" }, "geometry": { "type": "Point", "coordinates": [ -88.228502, 37.263053 ] } },
{ "type": "Feature", "properties": { "ID": 1920910, "NAME": "HOLY CROSS HOSPITAL", "TYPE": "GENERAL ACUTE CARE", "SOURCE": "http://dhmh.maryland.gov/ohcq/pages/licensee-directory.aspx", "VAL_METHOD": "IMAGERY", "VAL_DATE": "2014-02-09", "BEDS": 409, "TRAUMA": "NOT AVAILABLE", "HELIPAD": "N" }, "geometry": { "type": "Point", "coordinates": [ -77.035735, 39.014722 ] } },
{ "type": "Feature", "properties": { "ID": 2520744, "NAME": "ADVENTIST HEALTHCARE FORT WASHINGTON MEDICAL CTR", "TYPE": "GENERAL ACUTE CARE", "SOURCE": "http://dhmh.maryland.gov/ohcq/pages/licensee-directory.aspx", "VAL_METHOD": "IMAGERY", "VAL_DATE": "2014-02-09", "BEDS": 37, "TRAUMA": "NOT AVAILABLE", "HELIPAD": "Y" }, "geometry": { "type": "Point", "coordinates": [ -76.992702, 38.728563 ] } },
{ "type": "Feature", "properties": { "ID": 5842420, "NAME": "METHODIST HOSPITAL", "TYPE": "GENERAL ACUTE CARE", "SOURCE": "https://chfs.ky.gov/agencies/os/oig/dhc/documents/directories/hospital_directory.pdf", "VAL_METHOD": "IMAGERY/OTHER", "VAL_DATE": "2014-02-09", "BEDS": 192, "TRAUMA": "NOT AVAILABLE", "HELIPAD": "Y" }, "geometry": { "type": "Point", "coordinates": [ -87.583199, 37.854975 ] } },
{ "type": "Feature", "properties": { "ID": 440383, "NAME": "BLUEGRASS COMMUNITY HOSPITAL", "TYPE": "GENERAL ACUTE CARE", "SOURCE": "https://chfs.ky.gov/agencies/os/oig/dhc/documents/directories/hospital_directory.pdf", "VAL_METHOD": "IMAGERY", "VAL_DATE": "2014-02-09", "BEDS": 25, "TRAUMA": "NOT AVAILABLE", "HELIPAD": "Y" }, "geometry": { "type": "Point", "coordinates": [ -84.723788, 38.054766 ] } },
{ "type": "Feature", "properties": { "ID": 10542718, "NAME": "TAYLOR REGIONAL HOSPITAL", "TYPE": "GENERAL ACUTE CARE", "SOURCE": "https://chfs.ky.gov/agencies/os/oig/dhc/documents/directories/hospital_directory.pdf", "VAL_METHOD": "IMAGERY", "VAL_DATE": "2014-02-09", "BEDS": 90, "TRAUMA": "LEVEL III", "HELIPAD": "Y" }, "geometry": { "type": "Point", "coordinates": [ -85.338107, 37.366352 ] } },
{ "type": "Feature", "properties": { "ID": 4521502, "NAME": "UPMC WESTERN MARYLAND", "TYPE": "GENERAL ACUTE CARE", "SOURCE": "http://dhmh.maryland.gov/ohcq/pages/licensee-directory.aspx", "VAL_METHOD": "IMAGERY", "VAL_DATE": "2014-02-09", "BEDS": 371, "TRAUMA": "LEVEL III", "HELIPAD": "Y" }, "geometry": { "type": "Point", "coordinates": [ -78.733241, 39.647831 ] } },
{ "type": "Feature", "properties": { "ID": 4621401, "NAME": "ANNE ARUNDEL MEDICAL CENTER", "TYPE": "GENERAL ACUTE CARE", "SOURCE": "http://dhmh.maryland.gov/ohcq/pages/licensee-directory.aspx", "VAL_METHOD": "IMAGERY", "VAL_DATE": "2014-02-09", "BEDS": 380, "TRAUMA": "NOT AVAILABLE", "HELIPAD": "Y" }, "geometry": { "type": "Point", "coordinates": [ -76.534612, 38.989927 ] } },
{ "type": "Feature", "properties": { "ID": 8742642, "NAME": "RUSSELL COUNTY HOSPITAL", "TYPE": "GENERAL ACUTE CARE", "SOURCE": "https://chfs.ky.gov/agencies/os/oig/dhc/documents/directories/hospital_directory.pdf", "VAL_METHOD": "IMAGERY", "VAL_DATE": "2013-12-17", "BEDS": 25, "TRAUMA": "NOT AVAILABLE", "HELIPAD": "Y" }, "geometry": { "type": "Point", "coordinates": [ -85.067353, 37.05758 ] } },
{ "type": "Feature", "properties": { "ID": 4125801, "NAME": "RALEIGH GENERAL HOSPITAL", "TYPE": "GENERAL ACUTE CARE", "SOURCE": "https://ohflac.wvdhhr.org/apps/lookup/facilitysearch", "VAL_METHOD": "IMAGERY", "VAL_DATE": "2014-02-09", "BEDS": 300, "TRAUMA": "LEVEL III", "HELIPAD": "Y" }, "geometry": { "type": "Point", "coordinates": [ -81.201932, 37.787554 ] } },
{ "type": "Feature", "properties": { "ID": 8640456, "NAME": "ROCKCASTLE REGIONAL HOSPITAL & RESPIRATORY CARE CENTER", "TYPE": "GENERAL ACUTE CARE", "SOURCE": "https://chfs.ky.gov/agencies/os/oig/dhc/documents/directories/hospital_directory.pdf", "VAL_METHOD": "IMAGERY/OTHER", "VAL_DATE": "2014-02-09", "BEDS": 26, "TRAUMA": "LEVEL IV", "HELIPAD": "Y" }, "geometry": { "type": "Point", "coordinates": [ -84.335903, 37.357964 ] } },
{ "type": "Feature", "properties": { "ID": 5821921, "NAME": "UNION HOSPITAL OF CECIL COUNTY", "TYPE": "GENERAL ACUTE CARE", "SOURCE": "http://dhmh.maryland.gov/ohcq/pages/licensee-directory.aspx", "VAL_METHOD": "IMAGERY", "VAL_DATE": "2017-12-18", "BEDS": 122, "TRAUMA": "NOT AVAILABLE", "HELIPAD": "N" }, "geometry": { "type": "Point", "coordinates": [ -75.831967, 39.608515 ] } },
{ "type": "Feature", "properties": { "ID": 140207, "NAME": "BAPTIST HEALTH LOUISVILLE", "TYPE": "GENERAL ACUTE CARE", "SOURCE": "https://chfs.ky.gov/agencies/os/oig/dhc/documents/directories/hospital_directory.pdf", "VAL_METHOD": "IMAGERY/OTHER", "VAL_DATE": "2014-02-09", "BEDS": 519, "TRAUMA": "NOT AVAILABLE", "HELIPAD": "Y" }, "geometry": { "type": "Point", "coordinates": [ -85.637144, 38.238118 ] } },
{ "type": "Feature", "properties": { "ID": 4040202, "NAME": "UOFL HEALTH - JEWISH HOSPITAL", "TYPE": "GENERAL ACUTE CARE", "SOURCE": "https://chfs.ky.gov/agencies/os/oig/dhc/documents/directories/hospital_directory.pdf", "VAL_METHOD": "IMAGERY", "VAL_DATE": "2013-12-17", "BEDS": 462, "TRAUMA": "NOT AVAILABLE", "HELIPAD": "Y" }, "geometry": { "type": "Point", "coordinates": [ -85.751189, 38.249132 ] } },
{ "type": "Feature", "properties": { "ID": 11740202, "NAME": "UNIVERSITY OF LOUISVILLE HOSPITAL", "TYPE": "GENERAL ACUTE CARE", "SOURCE": "https://chfs.ky.gov/agencies/os/oig/dhc/documents/directories/hospital_directory.pdf", "VAL_METHOD": "IMAGERY", "VAL_DATE": "2014-02-09", "BEDS": 404, "TRAUMA": "LEVEL I", "HELIPAD": "Y" }, "geometry": { "type": "Point", "coordinates": [ -85.744336, 38.248323 ] } },
{ "type": "Feature", "properties": { "ID": 7941240, "NAME": "PAUL B HALL REGIONAL MEDICAL CENTER", "TYPE": "GENERAL ACUTE CARE", "SOURCE": "https://chfs.ky.gov/agencies/os/oig/dhc/documents/directories/hospital_directory.pdf", "VAL_METHOD": "IMAGERY", "VAL_DATE": "2013-12-17", "BEDS": 72, "TRAUMA": "NOT AVAILABLE", "HELIPAD": "N" }, "geometry": { "type": "Point", "coordinates": [ -82.813051, 37.815511 ] } },
{ "type": "Feature", "properties": { "ID": 825438, "NAME": "JEFFERSON MEDICAL CENTER", "TYPE": "CRITICAL ACCESS", "SOURCE": "https://ohflac.wvdhhr.org/apps/lookup/facilitysearch", "VAL_METHOD": "IMAGERY", "VAL_DATE": "2014-02-09", "BEDS": 25, "TRAUMA": "LEVEL IV", "HELIPAD": "Y" }, "geometry": { "type": "Point", "coordinates": [ -77.858759, 39.295989 ] } },
{ "type": "Feature", "properties": { "ID": 3625901, "NAME": "PLATEAU MEDICAL CENTER", "TYPE": "CRITICAL ACCESS", "SOURCE": "https://ohflac.wvdhhr.org/apps/lookup/facilitysearch", "VAL_METHOD": "IMAGERY/OTHER", "VAL_DATE": "2013-11-14", "BEDS": 25, "TRAUMA": "NOT AVAILABLE", "HELIPAD": "N" }, "geometry": { "type": "Point", "coordinates": [ -81.149781, 37.971277 ] } },
{ "type": "Feature", "properties": { "ID": 3226147, "NAME": "MINNIE HAMILTON HEALTH CARE CENTER", "TYPE": "CRITICAL ACCESS", "SOURCE": "https://ohflac.wvdhhr.org/apps/lookup/facilitysearch", "VAL_METHOD": "IMAGERY", "VAL_DATE": "2014-02-09", "BEDS": 42, "TRAUMA": "NOT AVAILABLE", "HELIPAD": "Y" }, "geometry": { "type": "Point", "coordinates": [ -81.092493, 38.92276 ] } },
{ "type": "Feature", "properties": { "ID": 1825701, "NAME": "ST MARY'S MEDICAL CENTER", "TYPE": "GENERAL ACUTE CARE", "SOURCE": "https://ohflac.wvdhhr.org/apps/lookup/facilitysearch", "VAL_METHOD": "IMAGERY", "VAL_DATE": "2014-03-11", "BEDS": 393, "TRAUMA": "LEVEL II", "HELIPAD": "Y" }, "geometry": { "type": "Point", "coordinates": [ -82.400413, 38.43055 ] } },
{ "type": "Feature", "properties": { "ID": 4024740, "NAME": "PRINCETON COMMUNITY HOSPITAL", "TYPE": "GENERAL ACUTE CARE", "SOURCE": "https://ohflac.wvdhhr.org/apps/lookup/facilitysearch", "VAL_METHOD": "IMAGERY", "VAL_DATE": "2014-02-09", "BEDS": 267, "TRAUMA": "LEVEL IV", "HELIPAD": "Y" }, "geometry": { "type": "Point", "coordinates": [ -81.113011, 37.362719 ] } },
{ "type": "Feature", "properties": { "ID": 3725550, "NAME": "PLEASANT VALLEY HOSPITAL", "TYPE": "GENERAL ACUTE CARE", "SOURCE": "https://ohflac.wvdhhr.org/apps/lookup/facilitysearch", "VAL_METHOD": "IMAGERY", "VAL_DATE": "2014-02-09", "BEDS": 201, "TRAUMA": "LEVEL IV", "HELIPAD": "Y" }, "geometry": { "type": "Point", "coordinates": [ -82.123224, 38.869065 ] } },
{ "type": "Feature", "properties": { "ID": 1425130, "NAME": "BOONE MEMORIAL HOSPITAL", "TYPE": "CRITICAL ACCESS", "SOURCE": "https://ohflac.wvdhhr.org/apps/lookup/facilitysearch", "VAL_METHOD": "IMAGERY/OTHER", "VAL_DATE": "2013-11-14", "BEDS": 25, "TRAUMA": "LEVEL IV", "HELIPAD": "N" }, "geometry": { "type": "Point", "coordinates": [ -81.80619, 38.0482 ] } },
{ "type": "Feature", "properties": { "ID": 5824924, "NAME": "POCAHONTAS MEMORIAL HOSPITAL", "TYPE": "CRITICAL ACCESS", "SOURCE": "https://ohflac.wvdhhr.org/apps/lookup/facilitysearch", "VAL_METHOD": "IMAGERY/OTHER", "VAL_DATE": "2013-11-14", "BEDS": 25, "TRAUMA": "LEVEL IV", "HELIPAD": "Y" }, "geometry": { "type": "Point", "coordinates": [ -80.108978, 38.200829 ] } },
{ "type": "Feature", "properties": { "ID": 1726201, "NAME": "ST JOSEPH HOSPITAL", "TYPE": "CRITICAL ACCESS", "SOURCE": "https://ohflac.wvdhhr.org/apps/lookup/facilitysearch", "VAL_METHOD": "IMAGERY", "VAL_DATE": "2014-02-09", "BEDS": 51, "TRAUMA": "LEVEL IV", "HELIPAD": "Y" }, "geometry": { "type": "Point", "coordinates": [ -80.236389, 38.991412 ] } },
{ "type": "Feature", "properties": { "ID": 2325401, "NAME": "BERKELEY MEDICAL CENTER", "TYPE": "GENERAL ACUTE CARE", "SOURCE": "https://ohflac.wvdhhr.org/apps/lookup/facilitysearch", "VAL_METHOD": "IMAGERY", "VAL_DATE": "2014-02-09", "BEDS": 195, "TRAUMA": "LEVEL III", "HELIPAD": "Y" }, "geometry": { "type": "Point", "coordinates": [ -77.980237, 39.476243 ] } },
{ "type": "Feature", "properties": { "ID": 6326506, "NAME": "WEST VIRGINIA UNIVERSITY HOSPITALS", "TYPE": "GENERAL ACUTE CARE", "SOURCE": "https://ohflac.wvdhhr.org/apps/lookup/facilitysearch", "VAL_METHOD": "IMAGERY/OTHER", "VAL_DATE": "2014-02-09", "BEDS": 677, "TRAUMA": "LEVEL I", "HELIPAD": "Y" }, "geometry": { "type": "Point", "coordinates": [ -79.958022, 39.654423 ] } },
{ "type": "Feature", "properties": { "ID": 1026038, "NAME": "REYNOLDS MEMORIAL HOSPITAL", "TYPE": "GENERAL ACUTE CARE", "SOURCE": "https://ohflac.wvdhhr.org/apps/lookup/facilitysearch", "VAL_METHOD": "IMAGERY", "VAL_DATE": "2014-02-09", "BEDS": 90, "TRAUMA": "LEVEL IV", "HELIPAD": "N" }, "geometry": { "type": "Point", "coordinates": [ -80.752438, 39.946142 ] } },
{ "type": "Feature", "properties": { "ID": 5641056, "NAME": "MEADOWVIEW REGIONAL MEDICAL CENTER", "TYPE": "GENERAL ACUTE CARE", "SOURCE": "https://chfs.ky.gov/agencies/os/oig/dhc/documents/directories/hospital_directory.pdf", "VAL_METHOD": "IMAGERY", "VAL_DATE": "2014-02-09", "BEDS": 100, "TRAUMA": "NOT AVAILABLE", "HELIPAD": "Y" }, "geometry": { "type": "Point", "coordinates": [ -83.808105, 38.639974 ] } },
{ "type": "Feature", "properties": { "ID": 10041042, "NAME": "ST. ELIZABETH FLORENCE", "TYPE": "GENERAL ACUTE CARE", "SOURCE": "https://chfs.ky.gov/agencies/os/oig/dhc/documents/directories/hospital_directory.pdf", "VAL_METHOD": "IMAGERY", "VAL_DATE": "2014-02-09", "BEDS": 231, "TRAUMA": "NOT AVAILABLE", "HELIPAD": "Y" }, "geometry": { "type": "Point", "coordinates": [ -84.630767, 39.016592 ] } },
{ "type": "Feature", "properties": { "ID": 8140977, "NAME": "PINEVILLE COMMUNITY HEALTH CENTER, INC", "TYPE": "GENERAL ACUTE CARE", "SOURCE": "https://chfs.ky.gov/agencies/os/oig/dhc/documents/directories/hospital_directory.pdf", "VAL_METHOD": "IMAGERY", "VAL_DATE": "2014-02-09", "BEDS": 120, "TRAUMA": "NOT AVAILABLE", "HELIPAD": "Y" }, "geometry": { "type": "Point", "coordinates": [ -83.707769, 36.762917 ] } },
{ "type": "Feature", "properties": { "ID": 2140422, "NAME": "EPHRAIM MCDOWELL REGIONAL MEDICAL CENTER", "TYPE": "GENERAL ACUTE CARE", "SOURCE": "https://chfs.ky.gov/agencies/os/oig/dhc/documents/directories/hospital_directory.pdf", "VAL_METHOD": "IMAGERY", "VAL_DATE": "2014-02-09", "BEDS": 197, "TRAUMA": "LEVEL III", "HELIPAD": "N" }, "geometry": { "type": "Point", "coordinates": [ -84.773001, 37.643873 ] } },
{ "type": "Feature", "properties": { "ID": 9740033, "NAME": "SPRING VIEW HOSPITAL", "TYPE": "GENERAL ACUTE CARE", "SOURCE": "https://chfs.ky.gov/agencies/os/oig/dhc/documents/directories/hospital_directory.pdf", "VAL_METHOD": "IMAGERY", "VAL_DATE": "2014-03-11", "BEDS": 75, "TRAUMA": "NOT AVAILABLE", "HELIPAD": "Y" }, "geometry": { "type": "Point", "coordinates": [ -85.261456, 37.569829 ] } },
{ "type": "Feature", "properties": { "ID": 6342345, "NAME": "OWENSBORO HEALTH MUHLENBERG COMMUNITY HOSPITAL", "TYPE": "GENERAL ACUTE CARE", "SOURCE": "https://chfs.ky.gov/agencies/os/oig/dhc/documents/directories/hospital_directory.pdf", "VAL_METHOD": "IMAGERY", "VAL_DATE": "2014-02-09", "BEDS": 90, "TRAUMA": "NOT AVAILABLE", "HELIPAD": "N" }, "geometry": { "type": "Point", "coordinates": [ -87.189294, 37.196535 ] } },
{ "type": "Feature", "properties": { "ID": 742445, "NAME": "CALDWELL MEDICAL CENTER", "TYPE": "CRITICAL ACCESS", "SOURCE": "https://chfs.ky.gov/agencies/os/oig/dhc/documents/directories/hospital_directory.pdf", "VAL_METHOD": "IMAGERY", "VAL_DATE": "2014-02-09", "BEDS": 25, "TRAUMA": "NOT AVAILABLE", "HELIPAD": "Y" }, "geometry": { "type": "Point", "coordinates": [ -87.9096, 37.113674 ] } },
{ "type": "Feature", "properties": { "ID": 10442141, "NAME": "T J SAMSON COMMUNITY HOSPITAL", "TYPE": "GENERAL ACUTE CARE", "SOURCE": "https://chfs.ky.gov/agencies/os/oig/dhc/documents/directories/hospital_directory.pdf", "VAL_METHOD": "IMAGERY", "VAL_DATE": "2014-02-09", "BEDS": 180, "TRAUMA": "NOT AVAILABLE", "HELIPAD": "Y" }, "geometry": { "type": "Point", "coordinates": [ -85.904514, 37.011392 ] } },
{ "type": "Feature", "properties": { "ID": 8041501, "NAME": "PIKEVILLE MEDICAL CENTER", "TYPE": "GENERAL ACUTE CARE", "SOURCE": "https://chfs.ky.gov/agencies/os/oig/dhc/documents/directories/hospital_directory.pdf", "VAL_METHOD": "IMAGERY/OTHER", "VAL_DATE": "2014-02-09", "BEDS": 340, "TRAUMA": "LEVEL II", "HELIPAD": "Y" }, "geometry": { "type": "Point", "coordinates": [ -82.522247, 37.471242 ] } },
{ "type": "Feature", "properties": { "ID": 3341701, "NAME": "HAZARD ARH REGIONAL MEDICAL CENTER", "TYPE": "GENERAL ACUTE CARE", "SOURCE": "https://chfs.ky.gov/agencies/os/oig/dhc/documents/directories/hospital_directory.pdf", "VAL_METHOD": "IMAGERY", "VAL_DATE": "2014-02-09", "BEDS": 358, "TRAUMA": "NOT AVAILABLE", "HELIPAD": "Y" }, "geometry": { "type": "Point", "coordinates": [ -83.227882, 37.278298 ] } },
{ "type": "Feature", "properties": { "ID": 12341503, "NAME": "TUG VALLEY ARH REGIONAL MEDICAL CENTER", "TYPE": "GENERAL ACUTE CARE", "SOURCE": "https://chfs.ky.gov/agencies/os/oig/dhc/documents/directories/hospital_directory.pdf", "VAL_METHOD": "IMAGERY", "VAL_DATE": "2014-02-09", "BEDS": 113, "TRAUMA": "LEVEL IV", "HELIPAD": "Y" }, "geometry": { "type": "Point", "coordinates": [ -82.297023, 37.676511 ] } },
{ "type": "Feature", "properties": { "ID": 14737331, "NAME": "STARR REGIONAL MEDICAL CENTER ETOWAH", "TYPE": "GENERAL ACUTE CARE", "SOURCE": "https://apps.health.tn.gov/facilitylistings", "VAL_METHOD": "IMAGERY", "VAL_DATE": "2014-02-09", "BEDS": 72, "TRAUMA": "LEVEL III", "HELIPAD": "Y" }, "geometry": { "type": "Point", "coordinates": [ -84.522719, 35.345099 ] } },
{ "type": "Feature", "properties": { "ID": 1125801, "NAME": "BECKLEY ARH HOSPITAL", "TYPE": "GENERAL ACUTE CARE", "SOURCE": "https://ohflac.wvdhhr.org/apps/lookup/facilitysearch", "VAL_METHOD": "IMAGERY", "VAL_DATE": "2014-02-09", "BEDS": 173, "TRAUMA": "LEVEL IV", "HELIPAD": "Y" }, "geometry": { "type": "Point", "coordinates": [ -81.168184, 37.798833 ] } },
{ "type": "Feature", "properties": { "ID": 7642303, "NAME": "OWENSBORO HEALTH", "TYPE": "GENERAL ACUTE CARE", "SOURCE": "https://chfs.ky.gov/agencies/os/oig/dhc/documents/directories/hospital_directory.pdf", "VAL_METHOD": "IMAGERY/OTHER", "VAL_DATE": "2014-02-09", "BEDS": 150, "TRAUMA": "NOT AVAILABLE", "HELIPAD": "N" }, "geometry": { "type": "Point", "coordinates": [ -87.100834, 37.766669 ] } },
{ "type": "Feature", "properties": { "ID": 8038401, "NAME": "MAURY REGIONAL HOSPITAL", "TYPE": "GENERAL ACUTE CARE", "SOURCE": "https://apps.health.tn.gov/facilitylistings", "VAL_METHOD": "IMAGERY/OTHER", "VAL_DATE": "2014-02-09", "BEDS": 255, "TRAUMA": "NOT AVAILABLE", "HELIPAD": "N" }, "geometry": { "type": "Point", "coordinates": [ -87.066891, 35.607164 ] } },
{ "type": "Feature", "properties": { "ID": 8338305, "NAME": "WEST TENNESSEE HEALTHCARE NORTH HOSPITAL", "TYPE": "GENERAL ACUTE CARE", "SOURCE": "https://apps.health.tn.gov/facilitylistings", "VAL_METHOD": "IMAGERY/OTHER", "VAL_DATE": "2014-02-09", "BEDS": 152, "TRAUMA": "NOT AVAILABLE", "HELIPAD": "Y" }, "geometry": { "type": "Point", "coordinates": [ -88.854048, 35.684447 ] } },
{ "type": "Feature", "properties": { "ID": 6538242, "NAME": "HENRY COUNTY MEDICAL CENTER", "TYPE": "GENERAL ACUTE CARE", "SOURCE": "https://apps.health.tn.gov/facilitylistings", "VAL_METHOD": "IMAGERY/OTHER", "VAL_DATE": "2014-02-09", "BEDS": 142, "TRAUMA": "NOT AVAILABLE", "HELIPAD": "Y" }, "geometry": { "type": "Point", "coordinates": [ -88.310305, 36.296543 ] } },
{ "type": "Feature", "properties": { "ID": 10840330, "NAME": "THE JAMES B. HAGGIN MEMORIAL HOSPITAL", "TYPE": "CRITICAL ACCESS", "SOURCE": "https://chfs.ky.gov/agencies/os/oig/dhc/documents/directories/hospital_directory.pdf", "VAL_METHOD": "IMAGERY", "VAL_DATE": "2014-02-09", "BEDS": 25, "TRAUMA": "LEVEL IV", "HELIPAD": "Y" }, "geometry": { "type": "Point", "coordinates": [ -84.848739, 37.757064 ] } },
{ "type": "Feature", "properties": { "ID": 137830, "NAME": "METHODIST MEDICAL CENTER OF OAK RIDGE", "TYPE": "GENERAL ACUTE CARE", "SOURCE": "https://apps.health.tn.gov/facilitylistings", "VAL_METHOD": "IMAGERY/OTHER", "VAL_DATE": "2014-02-09", "BEDS": 301, "TRAUMA": "NOT AVAILABLE", "HELIPAD": "Y" }, "geometry": { "type": "Point", "coordinates": [ -84.245086, 36.024545 ] } },
{ "type": "Feature", "properties": { "ID": 437367, "NAME": "ERLANGER BLEDSOE", "TYPE": "GENERAL ACUTE CARE", "SOURCE": "https://apps.health.tn.gov/facilitylistings", "VAL_METHOD": "IMAGERY/OTHER", "VAL_DATE": "2014-02-09", "BEDS": 25, "TRAUMA": "NOT AVAILABLE", "HELIPAD": "Y" }, "geometry": { "type": "Point", "coordinates": [ -85.190869, 35.620686 ] } },
{ "type": "Feature", "properties": { "ID": 14837371, "NAME": "STARR REGIONAL MEDICAL CENTER", "TYPE": "GENERAL ACUTE CARE", "SOURCE": "https://apps.health.tn.gov/facilitylistings", "VAL_METHOD": "IMAGERY/OTHER", "VAL_DATE": "2014-02-09", "BEDS": 190, "TRAUMA": "LEVEL III", "HELIPAD": "Y" }, "geometry": { "type": "Point", "coordinates": [ -84.607353, 35.440815 ] } },
{ "type": "Feature", "properties": { "ID": 2237207, "NAME": "TRISTAR SKYLINE MEDICAL CENTER", "TYPE": "GENERAL ACUTE CARE", "SOURCE": "https://apps.health.tn.gov/facilitylistings", "VAL_METHOD": "IMAGERY/OTHER", "VAL_DATE": "2014-02-09", "BEDS": 213, "TRAUMA": "LEVEL II", "HELIPAD": "Y" }, "geometry": { "type": "Point", "coordinates": [ -86.749619, 36.245341 ] } },
{ "type": "Feature", "properties": { "ID": 2737403, "NAME": "ERLANGER MEDICAL CENTER", "TYPE": "GENERAL ACUTE CARE", "SOURCE": "https://apps.health.tn.gov/facilitylistings", "VAL_METHOD": "IMAGERY/OTHER", "VAL_DATE": "2014-02-09", "BEDS": 560, "TRAUMA": "LEVEL I", "HELIPAD": "Y" }, "geometry": { "type": "Point", "coordinates": [ -85.290047, 35.048894 ] } },
{ "type": "Feature", "properties": { "ID": 6037172, "NAME": "NORTHCREST MEDICAL CENTER", "TYPE": "GENERAL ACUTE CARE", "SOURCE": "https://apps.health.tn.gov/facilitylistings", "VAL_METHOD": "IMAGERY/OTHER", "VAL_DATE": "2014-02-09", "BEDS": 109, "TRAUMA": "NOT AVAILABLE", "HELIPAD": "Y" }, "geometry": { "type": "Point", "coordinates": [ -86.886902, 36.47848 ] } },
{ "type": "Feature", "properties": { "ID": 637762, "NAME": "JELLICO MEDICAL CENTER", "TYPE": "GENERAL ACUTE CARE", "SOURCE": "https://apps.health.tn.gov/facilitylistings", "VAL_METHOD": "IMAGERY", "VAL_DATE": "2014-02-09", "BEDS": 54, "TRAUMA": "NOT AVAILABLE", "HELIPAD": "Y" }, "geometry": { "type": "Point", "coordinates": [ -84.128544, 36.573701 ] } },
{ "type": "Feature", "properties": { "ID": 10237604, "NAME": "JOHNSON CITY MEDICAL CENTER", "TYPE": "GENERAL ACUTE CARE", "SOURCE": "https://apps.health.tn.gov/facilitylistings", "VAL_METHOD": "IMAGERY/OTHER", "VAL_DATE": "2014-02-09", "BEDS": 585, "TRAUMA": "LEVEL I", "HELIPAD": "Y" }, "geometry": { "type": "Point", "coordinates": [ -82.384563, 36.307843 ] } },
{ "type": "Feature", "properties": { "ID": 15937067, "NAME": "WILLIAMSON MEDICAL CENTER", "TYPE": "GENERAL ACUTE CARE", "SOURCE": "https://apps.health.tn.gov/facilitylistings", "VAL_METHOD": "IMAGERY/OTHER", "VAL_DATE": "2013-09-15", "BEDS": 185, "TRAUMA": "NOT AVAILABLE", "HELIPAD": "Y" }, "geometry": { "type": "Point", "coordinates": [ -86.81925, 35.916162 ] } },
{ "type": "Feature", "properties": { "ID": 15137321, "NAME": "RHEA MEDICAL CENTER", "TYPE": "GENERAL ACUTE CARE", "SOURCE": "https://apps.health.tn.gov/facilitylistings", "VAL_METHOD": "IMAGERY/OTHER", "VAL_DATE": "2014-02-09", "BEDS": 25, "TRAUMA": "NOT AVAILABLE", "HELIPAD": "Y" }, "geometry": { "type": "Point", "coordinates": [ -84.981779, 35.529101 ] } },
{ "type": "Feature", "properties": { "ID": 6137130, "NAME": "SAINT THOMAS RUTHERFORD HOSPITAL", "TYPE": "GENERAL ACUTE CARE", "SOURCE": "https://apps.health.tn.gov/facilitylistings", "VAL_METHOD": "IMAGERY/OTHER", "VAL_DATE": "2014-02-09", "BEDS": 286, "TRAUMA": "NOT AVAILABLE", "HELIPAD": "Y" }, "geometry": { "type": "Point", "coordinates": [ -86.425031, 35.860579 ] } },
{ "type": "Feature", "properties": { "ID": 11337620, "NAME": "BRISTOL REGIONAL MEDICAL CENTER", "TYPE": "GENERAL ACUTE CARE", "SOURCE": "https://apps.health.tn.gov/facilitylistings", "VAL_METHOD": "IMAGERY", "VAL_DATE": "2014-02-09", "BEDS": 348, "TRAUMA": "LEVEL II", "HELIPAD": "Y" }, "geometry": { "type": "Point", "coordinates": [ -82.256923, 36.585516 ] } },
{ "type": "Feature", "properties": { "ID": 15237869, "NAME": "HANCOCK COUNTY HOSPITAL", "TYPE": "CRITICAL ACCESS", "SOURCE": "https://apps.health.tn.gov/facilitylistings", "VAL_METHOD": "IMAGERY", "VAL_DATE": "2014-02-09", "BEDS": 10, "TRAUMA": "NOT AVAILABLE", "HELIPAD": "Y" }, "geometry": { "type": "Point", "coordinates": [ -83.215108, 36.533333 ] } },
{ "type": "Feature", "properties": { "ID": 11537660, "NAME": "HOLSTON VALLEY MEDICAL CENTER", "TYPE": "GENERAL ACUTE CARE", "SOURCE": "https://apps.health.tn.gov/facilitylistings", "VAL_METHOD": "IMAGERY", "VAL_DATE": "2014-03-11", "BEDS": 505, "TRAUMA": "LEVEL I", "HELIPAD": "Y" }, "geometry": { "type": "Point", "coordinates": [ -82.554607, 36.554103 ] } },
{ "type": "Feature", "properties": { "ID": 102442431, "NAME": "BAPTIST HEALTH MADISONVILLE", "TYPE": "GENERAL ACUTE CARE", "SOURCE": "https://chfs.ky.gov/agencies/os/oig/dhc/documents/directories/hospital_directory.pdf", "VAL_METHOD": "IMAGERY/OTHER", "VAL_DATE": "2015-05-11", "BEDS": 390, "TRAUMA": "NOT AVAILABLE", "HELIPAD": "Y" }, "geometry": { "type": "Point", "coordinates": [ -87.493349, 37.340598 ] } },
{ "type": "Feature", "properties": { "ID": 103020850, "NAME": "ADVENTIST HEALTHCARE SHADY GROVE MEDICAL CENTER", "TYPE": "GENERAL ACUTE CARE", "SOURCE": "http://dhmh.maryland.gov/ohcq/pages/licensee-directory.aspx", "VAL_METHOD": "IMAGERY/OTHER", "VAL_DATE": "2015-05-11", "BEDS": 256, "TRAUMA": "NOT AVAILABLE", "HELIPAD": "Y" }, "geometry": { "type": "Point", "coordinates": [ -77.197904, 39.097844 ] } },
{ "type": "Feature", "properties": { "ID": 148224211, "NAME": "JOHNSTON MEMORIAL HOSPITAL", "TYPE": "GENERAL ACUTE CARE", "SOURCE": "http://www.vhi.org", "VAL_METHOD": "IMAGERY/OTHER", "VAL_DATE": "2015-03-25", "BEDS": 116, "TRAUMA": "NOT AVAILABLE", "HELIPAD": "Y" }, "geometry": { "type": "Point", "coordinates": [ -81.912121, 36.722913 ] } },
{ "type": "Feature", "properties": { "ID": 11527962, "NAME": "WASHINGTON REGIONAL MEDICAL CENTER", "TYPE": "GENERAL ACUTE CARE", "SOURCE": "https://www2.ncdhhs.gov/dhsr/reports.htm", "VAL_METHOD": "IMAGERY/OTHER", "VAL_DATE": "2014-02-10", "BEDS": 49, "TRAUMA": "NOT AVAILABLE", "HELIPAD": "Y" }, "geometry": { "type": "Point", "coordinates": [ -76.729284, 35.862782 ] } },
{ "type": "Feature", "properties": { "ID": 122939, "NAME": "AUGUSTA HEALTH", "TYPE": "GENERAL ACUTE CARE", "SOURCE": "http://www.vhi.org", "VAL_METHOD": "IMAGERY", "VAL_DATE": "2014-02-09", "BEDS": 255, "TRAUMA": "NOT AVAILABLE", "HELIPAD": "Y" }, "geometry": { "type": "Point", "coordinates": [ -78.986837, 38.094524 ] } },
{ "type": "Feature", "properties": { "ID": 2228078, "NAME": "NOVANT HEALTH HUNTERSVILLE MEDICAL CENTER", "TYPE": "GENERAL ACUTE CARE", "SOURCE": "https://www2.ncdhhs.gov/dhsr/reports.htm", "VAL_METHOD": "IMAGERY/OTHER", "VAL_DATE": "2014-02-09", "BEDS": 91, "TRAUMA": "NOT AVAILABLE", "HELIPAD": "Y" }, "geometry": { "type": "Point", "coordinates": [ -80.860261, 35.406444 ] } },
{ "type": "Feature", "properties": { "ID": 2328106, "NAME": "NOVANT HEALTH MATTHEWS MEDICAL CENTER", "TYPE": "GENERAL ACUTE CARE", "SOURCE": "https://www2.ncdhhs.gov/dhsr/reports.htm", "VAL_METHOD": "IMAGERY/OTHER", "VAL_DATE": "2014-02-09", "BEDS": 146, "TRAUMA": "NOT AVAILABLE", "HELIPAD": "Y" }, "geometry": { "type": "Point", "coordinates": [ -80.714078, 35.119985 ] } },
{ "type": "Feature", "properties": { "ID": 9228207, "NAME": "NOVANT HEALTH CHARLOTTE ORTHOPEDIC HOSPITAL", "TYPE": "GENERAL ACUTE CARE", "SOURCE": "https://www2.ncdhhs.gov/dhsr/reports.htm", "VAL_METHOD": "IMAGERY/OTHER", "VAL_DATE": "2014-02-09", "BEDS": 80, "TRAUMA": "NOT AVAILABLE", "HELIPAD": "Y" }, "geometry": { "type": "Point", "coordinates": [ -80.823522, 35.210798 ] } },
{ "type": "Feature", "properties": { "ID": 9728144, "NAME": "NOVANT HEALTH ROWAN MEDICAL CENTER", "TYPE": "GENERAL ACUTE CARE", "SOURCE": "https://www2.ncdhhs.gov/dhsr/reports.htm", "VAL_METHOD": "IMAGERY/OTHER", "VAL_DATE": "2014-02-09", "BEDS": 268, "TRAUMA": "NOT AVAILABLE", "HELIPAD": "Y" }, "geometry": { "type": "Point", "coordinates": [ -80.470708, 35.68127 ] } },
{ "type": "Feature", "properties": { "ID": 3428337, "NAME": "CAPE FEAR VALLEY - BLADEN COUNTY HOSPITAL", "TYPE": "GENERAL ACUTE CARE", "SOURCE": "https://www2.ncdhhs.gov/dhsr/reports.htm", "VAL_METHOD": "IMAGERY/OTHER", "VAL_DATE": "2014-02-09", "BEDS": 58, "TRAUMA": "NOT AVAILABLE", "HELIPAD": "Y" }, "geometry": { "type": "Point", "coordinates": [ -78.608004, 34.622434 ] } },
{ "type": "Feature", "properties": { "ID": 2427906, "NAME": "SENTARA ALBEMARLE MEDICAL CENTER", "TYPE": "GENERAL ACUTE CARE", "SOURCE": "https://www2.ncdhhs.gov/dhsr/reports.htm", "VAL_METHOD": "IMAGERY/OTHER", "VAL_DATE": "2014-02-09", "BEDS": 182, "TRAUMA": "NOT AVAILABLE", "HELIPAD": "Y" }, "geometry": { "type": "Point", "coordinates": [ -76.217933, 36.323596 ] } },
{ "type": "Feature", "properties": { "ID": 6328349, "NAME": "VIDANT DUPLIN HOSPITAL", "TYPE": "GENERAL ACUTE CARE", "SOURCE": "https://www2.ncdhhs.gov/dhsr/reports.htm", "VAL_METHOD": "IMAGERY/OTHER", "VAL_DATE": "2014-02-09", "BEDS": 101, "TRAUMA": "NOT AVAILABLE", "HELIPAD": "Y" }, "geometry": { "type": "Point", "coordinates": [ -77.961913, 34.96528 ] } },
{ "type": "Feature", "properties": { "ID": 527103, "NAME": "NOVANT HEALTH MEDICAL PARK HOSPITAL", "TYPE": "GENERAL ACUTE CARE", "SOURCE": "https://www2.ncdhhs.gov/dhsr/reports.htm", "VAL_METHOD": "IMAGERY/OTHER", "VAL_DATE": "2014-02-09", "BEDS": 22, "TRAUMA": "NOT AVAILABLE", "HELIPAD": "Y" }, "geometry": { "type": "Point", "coordinates": [ -80.296761, 36.075838 ] } },
{ "type": "Feature", "properties": { "ID": 8527577, "NAME": "JOHNSTON HEALTH", "TYPE": "GENERAL ACUTE CARE", "SOURCE": "https://www2.ncdhhs.gov/dhsr/reports.htm", "VAL_METHOD": "IMAGERY/OTHER", "VAL_DATE": "2014-02-09", "BEDS": 199, "TRAUMA": "NOT AVAILABLE", "HELIPAD": "Y" }, "geometry": { "type": "Point", "coordinates": [ -78.334981, 35.514415 ] } },
{ "type": "Feature", "properties": { "ID": 10728752, "NAME": "MISSION HOSPITAL MCDOWELL", "TYPE": "GENERAL ACUTE CARE", "SOURCE": "https://www2.ncdhhs.gov/dhsr/reports.htm", "VAL_METHOD": "IMAGERY", "VAL_DATE": "2014-02-09", "BEDS": 65, "TRAUMA": "NOT AVAILABLE", "HELIPAD": "Y" }, "geometry": { "type": "Point", "coordinates": [ -82.028476, 35.663396 ] } },
{ "type": "Feature", "properties": { "ID": 228791, "NAME": "MARGARET R. PARDEE MEMORIAL HOSPITAL", "TYPE": "GENERAL ACUTE CARE", "SOURCE": "https://www2.ncdhhs.gov/dhsr/reports.htm", "VAL_METHOD": "IMAGERY/OTHER", "VAL_DATE": "2014-02-09", "BEDS": 222, "TRAUMA": "NOT AVAILABLE", "HELIPAD": "Y" }, "geometry": { "type": "Point", "coordinates": [ -82.46708, 35.320314 ] } },
{ "type": "Feature", "properties": { "ID": 7628721, "NAME": "HAYWOOD REGIONAL MEDICAL CENTER", "TYPE": "GENERAL ACUTE CARE", "SOURCE": "https://www2.ncdhhs.gov/dhsr/reports.htm", "VAL_METHOD": "IMAGERY/OTHER", "VAL_DATE": "2014-02-09", "BEDS": 190, "TRAUMA": "NOT AVAILABLE", "HELIPAD": "Y" }, "geometry": { "type": "Point", "coordinates": [ -82.942509, 35.525381 ] } },
{ "type": "Feature", "properties": { "ID": 6028687, "NAME": "DAVIS REGIONAL MEDICAL CENTER", "TYPE": "GENERAL ACUTE CARE", "SOURCE": "https://www2.ncdhhs.gov/dhsr/reports.htm", "VAL_METHOD": "IMAGERY/OTHER", "VAL_DATE": "2014-02-09", "BEDS": 149, "TRAUMA": "NOT AVAILABLE", "HELIPAD": "Y" }, "geometry": { "type": "Point", "coordinates": [ -80.828715, 35.818429 ] } },
{ "type": "Feature", "properties": { "ID": 9627910, "NAME": "VIDANT ROANOKE-CHOWAN HOSPITAL", "TYPE": "GENERAL ACUTE CARE", "SOURCE": "https://www2.ncdhhs.gov/dhsr/reports.htm", "VAL_METHOD": "IMAGERY/OTHER", "VAL_DATE": "2014-02-09", "BEDS": 114, "TRAUMA": "NOT AVAILABLE", "HELIPAD": "N" }, "geometry": { "type": "Point", "coordinates": [ -76.995235, 36.285431 ] } },
{ "type": "Feature", "properties": { "ID": 7827261, "NAME": "HIGH POINT REGIONAL HEALTH", "TYPE": "GENERAL ACUTE CARE", "SOURCE": "https://www2.ncdhhs.gov/dhsr/reports.htm", "VAL_METHOD": "IMAGERY/OTHER", "VAL_DATE": "2014-02-09", "BEDS": 384, "TRAUMA": "NOT AVAILABLE", "HELIPAD": "Y" }, "geometry": { "type": "Point", "coordinates": [ -80.013394, 35.962824 ] } },
{ "type": "Feature", "properties": { "ID": 1927573, "NAME": "PERSON MEMORIAL HOSPITAL", "TYPE": "GENERAL ACUTE CARE", "SOURCE": "https://www2.ncdhhs.gov/dhsr/reports.htm", "VAL_METHOD": "IMAGERY", "VAL_DATE": "2014-02-09", "BEDS": 110, "TRAUMA": "NOT AVAILABLE", "HELIPAD": "Y" }, "geometry": { "type": "Point", "coordinates": [ -78.984895, 36.408453 ] } },
{ "type": "Feature", "properties": { "ID": 5327344, "NAME": "CHATHAM HOSPITAL, INC.", "TYPE": "GENERAL ACUTE CARE", "SOURCE": "https://www2.ncdhhs.gov/dhsr/reports.htm", "VAL_METHOD": "IMAGERY", "VAL_DATE": "2014-02-09", "BEDS": 25, "TRAUMA": "NOT AVAILABLE", "HELIPAD": "Y" }, "geometry": { "type": "Point", "coordinates": [ -79.420855, 35.722954 ] } },
{ "type": "Feature", "properties": { "ID": 928906, "NAME": "ERLANGER MURPHY MEDICAL CENTER", "TYPE": "GENERAL ACUTE CARE", "SOURCE": "https://www2.ncdhhs.gov/dhsr/reports.htm", "VAL_METHOD": "IMAGERY", "VAL_DATE": "2014-02-09", "BEDS": 191, "TRAUMA": "NOT AVAILABLE", "HELIPAD": "Y" }, "geometry": { "type": "Point", "coordinates": [ -83.966662, 35.072713 ] } },
{ "type": "Feature", "properties": { "ID": 10228359, "NAME": "SOUTHEASTERN REGIONAL MEDICAL CENTER", "TYPE": "GENERAL ACUTE CARE", "SOURCE": "https://www2.ncdhhs.gov/dhsr/reports.htm", "VAL_METHOD": "IMAGERY/OTHER", "VAL_DATE": "2013-09-30", "BEDS": 452, "TRAUMA": "NOT AVAILABLE", "HELIPAD": "N" }, "geometry": { "type": "Point", "coordinates": [ -79.01213, 34.636911 ] } },
{ "type": "Feature", "properties": { "ID": 5228646, "NAME": "CHARLES A. CANNON, JR. MEMORIAL HOSPITAL", "TYPE": "GENERAL ACUTE CARE", "SOURCE": "https://www2.ncdhhs.gov/dhsr/reports.htm", "VAL_METHOD": "IMAGERY", "VAL_DATE": "2014-02-09", "BEDS": 50, "TRAUMA": "NOT AVAILABLE", "HELIPAD": "Y" }, "geometry": { "type": "Point", "coordinates": [ -81.889357, 36.060318 ] } },
{ "type": "Feature", "properties": { "ID": 8428461, "NAME": "J. ARTHUR DOSHER MEMORIAL HOSPITAL", "TYPE": "GENERAL ACUTE CARE", "SOURCE": "https://www2.ncdhhs.gov/dhsr/reports.htm", "VAL_METHOD": "IMAGERY/OTHER", "VAL_DATE": "2014-02-09", "BEDS": 100, "TRAUMA": "NOT AVAILABLE", "HELIPAD": "Y" }, "geometry": { "type": "Point", "coordinates": [ -78.02159, 33.929662 ] } },
{ "type": "Feature", "properties": { "ID": 7228655, "NAME": "CAROLINAS HEALTHCARE SYSTEM BLUE RIDGE", "TYPE": "GENERAL ACUTE CARE", "SOURCE": "https://www2.ncdhhs.gov/dhsr/reports.htm", "VAL_METHOD": "IMAGERY/OTHER", "VAL_DATE": "2014-02-09", "BEDS": 315, "TRAUMA": "NOT AVAILABLE", "HELIPAD": "Y" }, "geometry": { "type": "Point", "coordinates": [ -81.654492, 35.726391 ] } },
{ "type": "Feature", "properties": { "ID": 3928302, "NAME": "CAPE FEAR VALLEY MEDICAL CENTER", "TYPE": "GENERAL ACUTE CARE", "SOURCE": "https://www2.ncdhhs.gov/dhsr/reports.htm", "VAL_METHOD": "IMAGERY/OTHER", "VAL_DATE": "2014-02-09", "BEDS": 600, "TRAUMA": "LEVEL III", "HELIPAD": "Y" }, "geometry": { "type": "Point", "coordinates": [ -78.933054, 35.031839 ] } },
{ "type": "Feature", "properties": { "ID": 14128170, "NAME": "ATRIUM HEALTH- ANSON", "TYPE": "GENERAL ACUTE CARE", "SOURCE": "https://www2.ncdhhs.gov/dhsr/reports.htm", "VAL_METHOD": "IMAGERY/OTHER", "VAL_DATE": "2016-01-24", "BEDS": 15, "TRAUMA": "NOT AVAILABLE", "HELIPAD": "Y" }, "geometry": { "type": "Point", "coordinates": [ -80.110086, 34.977722 ] } },
{ "type": "Feature", "properties": { "ID": 14628376, "NAME": "FIRSTHEALTH MOORE REGIONAL HOSPITAL - HOKE CAMPUS", "TYPE": "GENERAL ACUTE CARE", "SOURCE": "https://www2.ncdhhs.gov/dhsr/reports.htm", "VAL_METHOD": "IMAGERY/OTHER", "VAL_DATE": "2016-01-26", "BEDS": 8, "TRAUMA": "NOT AVAILABLE", "HELIPAD": "Y" }, "geometry": { "type": "Point", "coordinates": [ -79.149219, 35.021001 ] } },
{ "type": "Feature", "properties": { "ID": 15127401, "NAME": "SELECT SPECIALTY HOSPITAL - GREENSBORO", "TYPE": "GENERAL ACUTE CARE", "SOURCE": "https://www2.ncdhhs.gov/dhsr/reports.htm", "VAL_METHOD": "IMAGERY/OTHER", "VAL_DATE": "2016-02-21", "BEDS": 30, "TRAUMA": "NOT AVAILABLE", "HELIPAD": "N" }, "geometry": { "type": "Point", "coordinates": [ -79.786048, 36.091018 ] } },
{ "type": "Feature", "properties": { "ID": 16917701, "NAME": "WILLIAMSPORT REGIONAL MEDICAL CENTER", "TYPE": "GENERAL ACUTE CARE", "SOURCE": "http://sais.health.pa.gov/commonpoc/content/publiccommonpoc/normalsearch.asp", "VAL_METHOD": "IMAGERY", "VAL_DATE": "2014-02-09", "BEDS": 228, "TRAUMA": "NOT AVAILABLE", "HELIPAD": "Y" }, "geometry": { "type": "Point", "coordinates": [ -77.015967, 41.247011 ] } },
{ "type": "Feature", "properties": { "ID": 11008240, "NAME": "ATLANTICARE REGIONAL MEDICAL CENTER - MAINLAND DIVISION", "TYPE": "GENERAL ACUTE CARE", "SOURCE": "https://www.state.nj.us/health/healthfacilities/findhospital.shtml", "VAL_METHOD": "IMAGERY/OTHER", "VAL_DATE": "2014-02-09", "BEDS": 349, "TRAUMA": "NOT AVAILABLE", "HELIPAD": "Y" }, "geometry": { "type": "Point", "coordinates": [ -74.540073, 39.478983 ] } },
{ "type": "Feature", "properties": { "ID": 12207652, "NAME": "BERGEN NEW BRIDGE MEDICAL CENTER", "TYPE": "GENERAL ACUTE CARE", "SOURCE": "https://www.state.nj.us/health/healthfacilities/findhospital.shtml", "VAL_METHOD": "IMAGERY/OTHER", "VAL_DATE": "2014-02-09", "BEDS": 510, "TRAUMA": "NOT AVAILABLE", "HELIPAD": "N" }, "geometry": { "type": "Point", "coordinates": [ -74.062992, 40.956668 ] } },
{ "type": "Feature", "properties": { "ID": 12607666, "NAME": "HOLY NAME MEDICAL CENTER", "TYPE": "GENERAL ACUTE CARE", "SOURCE": "https://www.state.nj.us/health/healthfacilities/findhospital.shtml", "VAL_METHOD": "IMAGERY", "VAL_DATE": "2014-02-09", "BEDS": 372, "TRAUMA": "NOT AVAILABLE", "HELIPAD": "N" }, "geometry": { "type": "Point", "coordinates": [ -74.0104, 40.882992 ] } },
{ "type": "Feature", "properties": { "ID": 6007470, "NAME": "SAINT JOSEPHS WAYNE MEDICAL CENTER", "TYPE": "GENERAL ACUTE CARE", "SOURCE": "https://www.state.nj.us/health/healthfacilities/findhospital.shtml", "VAL_METHOD": "IMAGERY", "VAL_DATE": "2014-02-09", "BEDS": 229, "TRAUMA": "NOT AVAILABLE", "HELIPAD": "N" }, "geometry": { "type": "Point", "coordinates": [ -74.20272, 40.947124 ] } },
{ "type": "Feature", "properties": { "ID": 7007109, "NAME": "CLARA MAASS MEDICAL CENTER", "TYPE": "GENERAL ACUTE CARE", "SOURCE": "https://www.state.nj.us/health/healthfacilities/findhospital.shtml", "VAL_METHOD": "IMAGERY", "VAL_DATE": "2014-02-09", "BEDS": 469, "TRAUMA": "NOT AVAILABLE", "HELIPAD": "N" }, "geometry": { "type": "Point", "coordinates": [ -74.176321, 40.785671 ] } },
{ "type": "Feature", "properties": { "ID": 7507018, "NAME": "EAST ORANGE GENERAL HOSPITAL", "TYPE": "GENERAL ACUTE CARE", "SOURCE": "https://www.state.nj.us/health/healthfacilities/findhospital.shtml", "VAL_METHOD": "IMAGERY", "VAL_DATE": "2014-02-09", "BEDS": 212, "TRAUMA": "NOT AVAILABLE", "HELIPAD": "N" }, "geometry": { "type": "Point", "coordinates": [ -74.213601, 40.754604 ] } },
{ "type": "Feature", "properties": { "ID": 13808360, "NAME": "INSPIRA MEDICAL CENTER VINELAND", "TYPE": "GENERAL ACUTE CARE", "SOURCE": "https://www.state.nj.us/health/healthfacilities/findhospital.shtml", "VAL_METHOD": "IMAGERY", "VAL_DATE": "2014-02-09", "BEDS": 335, "TRAUMA": "NOT AVAILABLE", "HELIPAD": "Y" }, "geometry": { "type": "Point", "coordinates": [ -75.058969, 39.445476 ] } },
{ "type": "Feature", "properties": { "ID": 12807094, "NAME": "HUDSON REGIONAL HOSPITAL", "TYPE": "GENERAL ACUTE CARE", "SOURCE": "https://www.state.nj.us/health/healthfacilities/findhospital.shtml", "VAL_METHOD": "IMAGERY", "VAL_DATE": "2014-03-11", "BEDS": 234, "TRAUMA": "NOT AVAILABLE", "HELIPAD": "Y" }, "geometry": { "type": "Point", "coordinates": [ -74.073237, 40.79183 ] } },
{ "type": "Feature", "properties": { "ID": 13207206, "NAME": "TRINITAS HOSPITAL - NEW POINT CAMPUS", "TYPE": "GENERAL ACUTE CARE", "SOURCE": "https://www.state.nj.us/health/healthfacilities/findhospital.shtml", "VAL_METHOD": "IMAGERY", "VAL_DATE": "2014-02-09", "BEDS": 60, "TRAUMA": "NOT AVAILABLE", "HELIPAD": "N" }, "geometry": { "type": "Point", "coordinates": [ -74.197588, 40.659109 ] } },
{ "type": "Feature", "properties": { "ID": 6707860, "NAME": "NEWTON MEDICAL CENTER", "TYPE": "GENERAL ACUTE CARE", "SOURCE": "https://www.state.nj.us/health/healthfacilities/findhospital.shtml", "VAL_METHOD": "IMAGERY", "VAL_DATE": "2014-02-09", "BEDS": 146, "TRAUMA": "NOT AVAILABLE", "HELIPAD": "Y" }, "geometry": { "type": "Point", "coordinates": [ -74.768443, 41.057648 ] } },
{ "type": "Feature", "properties": { "ID": 11108629, "NAME": "SAINT FRANCIS MEDICAL CENTER", "TYPE": "GENERAL ACUTE CARE", "SOURCE": "https://www.state.nj.us/health/healthfacilities/findhospital.shtml", "VAL_METHOD": "IMAGERY", "VAL_DATE": "2014-02-09", "BEDS": 238, "TRAUMA": "NOT AVAILABLE", "HELIPAD": "N" }, "geometry": { "type": "Point", "coordinates": [ -74.741652, 40.216522 ] } },
{ "type": "Feature", "properties": { "ID": 9408724, "NAME": "OCEAN MEDICAL CENTER", "TYPE": "GENERAL ACUTE CARE", "SOURCE": "https://www.state.nj.us/health/healthfacilities/findhospital.shtml", "VAL_METHOD": "IMAGERY", "VAL_DATE": "2014-02-09", "BEDS": 281, "TRAUMA": "NOT AVAILABLE", "HELIPAD": "N" }, "geometry": { "type": "Point", "coordinates": [ -74.131447, 40.077183 ] } },
{ "type": "Feature", "properties": { "ID": 107907002, "NAME": "CAREPOINT HEALTH - BAYONNE MEDICAL CENTER", "TYPE": "GENERAL ACUTE CARE", "SOURCE": "https://www.state.nj.us/health/healthfacilities/findhospital.shtml", "VAL_METHOD": "IMAGERY/OTHER", "VAL_DATE": "2015-02-08", "BEDS": 261, "TRAUMA": "NOT AVAILABLE", "HELIPAD": "N" }, "geometry": { "type": "Point", "coordinates": [ -74.112714, 40.668304 ] } },
{ "type": "Feature", "properties": { "ID": 108007306, "NAME": "CAREPOINT HEALTH-CHRIST HOSPITAL", "TYPE": "GENERAL ACUTE CARE", "SOURCE": "https://www.state.nj.us/health/healthfacilities/findhospital.shtml", "VAL_METHOD": "IMAGERY/OTHER", "VAL_DATE": "2015-02-08", "BEDS": 358, "TRAUMA": "NOT AVAILABLE", "HELIPAD": "N" }, "geometry": { "type": "Point", "coordinates": [ -74.049958, 40.734268 ] } },
{ "type": "Feature", "properties": { "ID": 109507675, "NAME": "HACKENSACK MERIDIAN HEALTH PASCACK VALLEY MEDICAL CENTER", "TYPE": "GENERAL ACUTE CARE", "SOURCE": "https://www.state.nj.us/health/healthfacilities/findhospital.shtml", "VAL_METHOD": "IMAGERY/OTHER", "VAL_DATE": "2015-02-08", "BEDS": 128, "TRAUMA": "NOT AVAILABLE", "HELIPAD": "Y" }, "geometry": { "type": "Point", "coordinates": [ -74.015681, 40.985616 ] } },
{ "type": "Feature", "properties": { "ID": 721223, "NAME": "GRACE MEDICAL CENTER", "TYPE": "GENERAL ACUTE CARE", "SOURCE": "http://dhmh.maryland.gov/ohcq/pages/licensee-directory.aspx", "VAL_METHOD": "IMAGERY/OTHER", "VAL_DATE": "2014-02-09", "BEDS": 125, "TRAUMA": "NOT AVAILABLE", "HELIPAD": "N" }, "geometry": { "type": "Point", "coordinates": [ -76.649253, 39.288346 ] } },
{ "type": "Feature", "properties": { "ID": 18319390, "NAME": "JENNERSVILLE REGIONAL HOSPITAL", "TYPE": "GENERAL ACUTE CARE", "SOURCE": "http://sais.health.pa.gov/commonpoc/content/publiccommonpoc/normalsearch.asp", "VAL_METHOD": "IMAGERY", "VAL_DATE": "2014-01-09", "BEDS": 59, "TRAUMA": "NOT AVAILABLE", "HELIPAD": "Y" }, "geometry": { "type": "Point", "coordinates": [ -75.887735, 39.822039 ] } },
{ "type": "Feature", "properties": { "ID": 5942437, "NAME": "METHODIST HOSPITAL UNION COUNTY", "TYPE": "GENERAL ACUTE CARE", "SOURCE": "https://chfs.ky.gov/agencies/os/oig/dhc/documents/directories/hospital_directory.pdf", "VAL_METHOD": "IMAGERY", "VAL_DATE": "2014-02-09", "BEDS": 25, "TRAUMA": "LEVEL IV", "HELIPAD": "Y" }, "geometry": { "type": "Point", "coordinates": [ -87.947656, 37.628796 ] } },
{ "type": "Feature", "properties": { "ID": 4140065, "NAME": "UOFL HEALTH - SHELBYVILLE HOSPITAL", "TYPE": "GENERAL ACUTE CARE", "SOURCE": "https://chfs.ky.gov/agencies/os/oig/dhc/documents/directories/hospital_directory.pdf", "VAL_METHOD": "IMAGERY", "VAL_DATE": "2014-02-09", "BEDS": 70, "TRAUMA": "NOT AVAILABLE", "HELIPAD": "N" }, "geometry": { "type": "Point", "coordinates": [ -85.235922, 38.209028 ] } },
{ "type": "Feature", "properties": { "ID": 11042134, "NAME": "THE MEDICAL CENTER AT FRANKLIN", "TYPE": "GENERAL ACUTE CARE", "SOURCE": "https://chfs.ky.gov/agencies/os/oig/dhc/documents/directories/hospital_directory.pdf", "VAL_METHOD": "IMAGERY", "VAL_DATE": "2014-02-09", "BEDS": 25, "TRAUMA": "NOT AVAILABLE", "HELIPAD": "Y" }, "geometry": { "type": "Point", "coordinates": [ -86.576828, 36.700018 ] } },
{ "type": "Feature", "properties": { "ID": 6221701, "NAME": "FREDERICK HEALTH HOSPITAL", "TYPE": "GENERAL ACUTE CARE", "SOURCE": "http://dhmh.maryland.gov/ohcq/pages/licensee-directory.aspx", "VAL_METHOD": "IMAGERY", "VAL_DATE": "2014-02-09", "BEDS": 308, "TRAUMA": "NOT AVAILABLE", "HELIPAD": "Y" }, "geometry": { "type": "Point", "coordinates": [ -77.414661, 39.422657 ] } },
{ "type": "Feature", "properties": { "ID": 2225309, "NAME": "THOMAS MEMORIAL HOSPITAL", "TYPE": "GENERAL ACUTE CARE", "SOURCE": "https://ohflac.wvdhhr.org/apps/lookup/facilitysearch", "VAL_METHOD": "IMAGERY", "VAL_DATE": "2014-02-09", "BEDS": 241, "TRAUMA": "LEVEL IV", "HELIPAD": "N" }, "geometry": { "type": "Point", "coordinates": [ -81.726867, 38.354865 ] } },
{ "type": "Feature", "properties": { "ID": 6026330, "NAME": "UNITED HOSPITAL CENTER", "TYPE": "GENERAL ACUTE CARE", "SOURCE": "https://ohflac.wvdhhr.org/apps/lookup/facilitysearch", "VAL_METHOD": "IMAGERY", "VAL_DATE": "2014-02-09", "BEDS": 292, "TRAUMA": "LEVEL IV", "HELIPAD": "Y" }, "geometry": { "type": "Point", "coordinates": [ -80.23946, 39.32831 ] } },
{ "type": "Feature", "properties": { "ID": 120, "NAME": "CAMC MEMORIAL HOSPITAL", "TYPE": "GENERAL ACUTE CARE", "SOURCE": "https://ohflac.wvdhhr.org/apps/lookup/facilitysearch", "VAL_METHOD": "IMAGERY", "VAL_DATE": "2015-05-21", "BEDS": 150, "TRAUMA": "LEVEL IV", "HELIPAD": "Y" }, "geometry": { "type": "Point", "coordinates": [ -81.602949, 38.329726 ] } },
{ "type": "Feature", "properties": { "ID": 3942241, "NAME": "JENNIE STUART MEDICAL CENTER", "TYPE": "GENERAL ACUTE CARE", "SOURCE": "https://chfs.ky.gov/agencies/os/oig/dhc/documents/directories/hospital_directory.pdf", "VAL_METHOD": "IMAGERY", "VAL_DATE": "2014-02-09", "BEDS": 194, "TRAUMA": "NOT AVAILABLE", "HELIPAD": "Y" }, "geometry": { "type": "Point", "coordinates": [ -87.494951, 36.861187 ] } },
{ "type": "Feature", "properties": { "ID": 2125301, "NAME": "CHARLESTON SURGICAL HOSPITAL", "TYPE": "GENERAL ACUTE CARE", "SOURCE": "https://ohflac.wvdhhr.org/apps/lookup/facilitysearch", "VAL_METHOD": "IMAGERY/OTHER", "VAL_DATE": "2013-11-13", "BEDS": 35, "TRAUMA": "NOT AVAILABLE", "HELIPAD": "N" }, "geometry": { "type": "Point", "coordinates": [ -81.630054, 38.343355 ] } },
{ "type": "Feature", "properties": { "ID": 3526003, "NAME": "OHIO VALLEY MEDICAL CENTER", "TYPE": "GENERAL ACUTE CARE", "SOURCE": "https://ohflac.wvdhhr.org/apps/lookup/facilitysearch", "VAL_METHOD": "IMAGERY", "VAL_DATE": "2014-02-09", "BEDS": 218, "TRAUMA": "NOT AVAILABLE", "HELIPAD": "N" }, "geometry": { "type": "Point", "coordinates": [ -80.721681, 40.060075 ] } },
{ "type": "Feature", "properties": { "ID": 104420876, "NAME": "HOLY CROSS GERMANTOWN HOSPITAL", "TYPE": "GENERAL ACUTE CARE", "SOURCE": "http://dhmh.maryland.gov/ohcq/pages/licensee-directory.aspx", "VAL_METHOD": "IMAGERY/OTHER", "VAL_DATE": "2015-02-26", "BEDS": 93, "TRAUMA": "NOT AVAILABLE", "HELIPAD": "N" }, "geometry": { "type": "Point", "coordinates": [ -77.24261, 39.181761 ] } },
{ "type": "Feature", "properties": { "ID": 16123225, "NAME": "HUNTER HOLMES MCGUIRE VA MEDICAL CENTER", "TYPE": "GENERAL ACUTE CARE", "SOURCE": "https://www.va.gov/directory/guide/allstate.asp", "VAL_METHOD": "IMAGERY/OTHER", "VAL_DATE": "2015-05-28", "BEDS": 273, "TRAUMA": "NOT AVAILABLE", "HELIPAD": "Y" }, "geometry": { "type": "Point", "coordinates": [ -77.467685, 37.498074 ] } },
{ "type": "Feature", "properties": { "ID": 121, "NAME": "OVERLOOK MEDICAL CENTER", "TYPE": "GENERAL ACUTE CARE", "SOURCE": "https://www.state.nj.us/health/healthfacilities/findhospital.shtml", "VAL_METHOD": "IMAGERY/OTHER", "VAL_DATE": "2015-05-21", "BEDS": 504, "TRAUMA": "NOT AVAILABLE", "HELIPAD": "N" }, "geometry": { "type": "Point", "coordinates": [ -74.265655, 40.674816 ] } },
{ "type": "Feature", "properties": { "ID": 620010, "NAME": "MEDSTAR WASHINGTON HOSPITAL CENTER", "TYPE": "GENERAL ACUTE CARE", "SOURCE": "http://doh.dc.gov/node/173192", "VAL_METHOD": "IMAGERY", "VAL_DATE": "2014-02-09", "BEDS": 926, "TRAUMA": "LEVEL I", "HELIPAD": "Y" }, "geometry": { "type": "Point", "coordinates": [ -77.015648, 38.929652 ] } },
{ "type": "Feature", "properties": { "ID": 1220037, "NAME": "GEORGE WASHINGTON UNIVERSITY HOSPITAL", "TYPE": "GENERAL ACUTE CARE", "SOURCE": "http://doh.dc.gov/node/173192", "VAL_METHOD": "IMAGERY/OTHER", "VAL_DATE": "2013-12-04", "BEDS": 339, "TRAUMA": "LEVEL I", "HELIPAD": "N" }, "geometry": { "type": "Point", "coordinates": [ -77.050637, 38.901319 ] } },
{ "type": "Feature", "properties": { "ID": 921287, "NAME": "JOHNS HOPKINS HOSPITAL", "TYPE": "GENERAL ACUTE CARE", "SOURCE": "http://dhmh.maryland.gov/ohcq/pages/licensee-directory.aspx", "VAL_METHOD": "IMAGERY", "VAL_DATE": "2014-02-09", "BEDS": 951, "TRAUMA": "LEVEL I, LEVEL PEDIATRIC", "HELIPAD": "Y" }, "geometry": { "type": "Point", "coordinates": [ -76.591972, 39.296109 ] } },
{ "type": "Feature", "properties": { "ID": 3042701, "NAME": "HARDIN MEMORIAL HOSPITAL", "TYPE": "GENERAL ACUTE CARE", "SOURCE": "https://chfs.ky.gov/agencies/os/oig/dhc/documents/directories/hospital_directory.pdf", "VAL_METHOD": "IMAGERY/OTHER", "VAL_DATE": "2014-02-09", "BEDS": 285, "TRAUMA": "NOT AVAILABLE", "HELIPAD": "Y" }, "geometry": { "type": "Point", "coordinates": [ -85.876296, 37.709944 ] } },
{ "type": "Feature", "properties": { "ID": 7242347, "NAME": "OHIO COUNTY HOSPITAL", "TYPE": "CRITICAL ACCESS", "SOURCE": "https://chfs.ky.gov/agencies/os/oig/dhc/documents/directories/hospital_directory.pdf", "VAL_METHOD": "IMAGERY", "VAL_DATE": "2014-02-09", "BEDS": 25, "TRAUMA": "NOT AVAILABLE", "HELIPAD": "N" }, "geometry": { "type": "Point", "coordinates": [ -86.896448, 37.448467 ] } },
{ "type": "Feature", "properties": { "ID": 103921014, "NAME": "UMD UPPER CHESAPEAKE MEDICAL CENTER", "TYPE": "GENERAL ACUTE CARE", "SOURCE": "http://dhmh.maryland.gov/ohcq/pages/licensee-directory.aspx", "VAL_METHOD": "IMAGERY/OTHER", "VAL_DATE": "2015-02-26", "BEDS": 170, "TRAUMA": "NOT AVAILABLE", "HELIPAD": "Y" }, "geometry": { "type": "Point", "coordinates": [ -76.345726, 39.519578 ] } },
{ "type": "Feature", "properties": { "ID": 189219963, "NAME": "BAYHEALTH HOSPITAL SUSSEX CAMPUS", "TYPE": "GENERAL ACUTE CARE", "SOURCE": "http://www.dhss.delaware.gov/dhss/dltcrp/ohflcmain.html", "VAL_METHOD": "IMAGERY/OTHER", "VAL_DATE": "2020-05-04", "BEDS": 128, "TRAUMA": "LEVEL III", "HELIPAD": "N" }, "geometry": { "type": "Point", "coordinates": [ -75.391695, 38.8869 ] } },
{ "type": "Feature", "properties": { "ID": 2128233, "NAME": "NOVANT HEALTH PRESBYTERIAN MEDICAL CENTER", "TYPE": "GENERAL ACUTE CARE", "SOURCE": "https://www2.ncdhhs.gov/dhsr/reports.htm", "VAL_METHOD": "IMAGERY/OTHER", "VAL_DATE": "2014-02-09", "BEDS": 661, "TRAUMA": "LEVEL III", "HELIPAD": "Y" }, "geometry": { "type": "Point", "coordinates": [ -80.824164, 35.211838 ] } },
{ "type": "Feature", "properties": { "ID": 3127889, "NAME": "VIDANT BEAUFORT HOSPITAL", "TYPE": "GENERAL ACUTE CARE", "SOURCE": "https://www2.ncdhhs.gov/dhsr/reports.htm", "VAL_METHOD": "IMAGERY/OTHER", "VAL_DATE": "2013-09-30", "BEDS": 142, "TRAUMA": "NOT AVAILABLE", "HELIPAD": "N" }, "geometry": { "type": "Point", "coordinates": [ -77.037838, 35.549222 ] } },
{ "type": "Feature", "properties": { "ID": 11228690, "NAME": "CAROLINAS HEALTHCARE SYSTEM BLUE RIDGE - VALDESE", "TYPE": "GENERAL ACUTE CARE", "SOURCE": "https://www2.ncdhhs.gov/dhsr/data/hllist.pdf", "VAL_METHOD": "IMAGERY/OTHER", "VAL_DATE": "2014-02-09", "BEDS": 131, "TRAUMA": "NOT AVAILABLE", "HELIPAD": "Y" }, "geometry": { "type": "Point", "coordinates": [ -81.52342, 35.748124 ] } },
{ "type": "Feature", "properties": { "ID": 7727886, "NAME": "VIDANT EDGECOMBE HOSPITAL", "TYPE": "GENERAL ACUTE CARE", "SOURCE": "https://www2.ncdhhs.gov/dhsr/reports.htm", "VAL_METHOD": "IMAGERY/OTHER", "VAL_DATE": "2014-02-09", "BEDS": 117, "TRAUMA": "NOT AVAILABLE", "HELIPAD": "Y" }, "geometry": { "type": "Point", "coordinates": [ -77.555916, 35.921031 ] } },
{ "type": "Feature", "properties": { "ID": 4528256, "NAME": "ATRIUM HEALTH UNIVERSITY CITY", "TYPE": "GENERAL ACUTE CARE", "SOURCE": "https://www2.ncdhhs.gov/dhsr/reports.htm", "VAL_METHOD": "IMAGERY/OTHER", "VAL_DATE": "2014-02-09", "BEDS": 100, "TRAUMA": "NOT AVAILABLE", "HELIPAD": "Y" }, "geometry": { "type": "Point", "coordinates": [ -80.747048, 35.306757 ] } },
{ "type": "Feature", "properties": { "ID": 3328335, "NAME": "BETSY JOHNSON HOSPITAL", "TYPE": "GENERAL ACUTE CARE", "SOURCE": "https://www2.ncdhhs.gov/dhsr/reports.htm", "VAL_METHOD": "IMAGERY/OTHER", "VAL_DATE": "2014-02-09", "BEDS": 151, "TRAUMA": "NOT AVAILABLE", "HELIPAD": "Y" }, "geometry": { "type": "Point", "coordinates": [ -78.634666, 35.307033 ] } },
{ "type": "Feature", "properties": { "ID": 7427870, "NAME": "VIDANT NORTH HOSPITAL", "TYPE": "GENERAL ACUTE CARE", "SOURCE": "https://www2.ncdhhs.gov/dhsr/reports.htm", "VAL_METHOD": "IMAGERY", "VAL_DATE": "2014-02-09", "BEDS": 206, "TRAUMA": "NOT AVAILABLE", "HELIPAD": "Y" }, "geometry": { "type": "Point", "coordinates": [ -77.646414, 36.432006 ] } },
{ "type": "Feature", "properties": { "ID": 6127611, "NAME": "DUKE RALEIGH HOSPITAL", "TYPE": "GENERAL ACUTE CARE", "SOURCE": "https://www2.ncdhhs.gov/dhsr/reports.htm", "VAL_METHOD": "IMAGERY/OTHER", "VAL_DATE": "2014-02-09", "BEDS": 186, "TRAUMA": "NOT AVAILABLE", "HELIPAD": "N" }, "geometry": { "type": "Point", "coordinates": [ -78.618126, 35.828533 ] } },
{ "type": "Feature", "properties": { "ID": 4928557, "NAME": "CARTERET GENERAL HOSPITAL", "TYPE": "GENERAL ACUTE CARE", "SOURCE": "https://www2.ncdhhs.gov/dhsr/reports.htm", "VAL_METHOD": "IMAGERY/OTHER", "VAL_DATE": "2013-09-29", "BEDS": 135, "TRAUMA": "NOT AVAILABLE", "HELIPAD": "N" }, "geometry": { "type": "Point", "coordinates": [ -76.755041, 34.726209 ] } },
{ "type": "Feature", "properties": { "ID": 7028601, "NAME": "FRYE REGIONAL MEDICAL CENTER", "TYPE": "GENERAL ACUTE CARE", "SOURCE": "https://www2.ncdhhs.gov/dhsr/reports.htm", "VAL_METHOD": "IMAGERY/OTHER", "VAL_DATE": "2013-09-30", "BEDS": 355, "TRAUMA": "NOT AVAILABLE", "HELIPAD": "N" }, "geometry": { "type": "Point", "coordinates": [ -81.337271, 35.737346 ] } },
{ "type": "Feature", "properties": { "ID": 11427511, "NAME": "WAKEMED CARY HOSPITAL", "TYPE": "GENERAL ACUTE CARE", "SOURCE": "https://www2.ncdhhs.gov/dhsr/reports.htm", "VAL_METHOD": "IMAGERY/OTHER", "VAL_DATE": "2014-02-09", "BEDS": 150, "TRAUMA": "LEVEL III", "HELIPAD": "Y" }, "geometry": { "type": "Point", "coordinates": [ -78.781456, 35.740224 ] } },
{ "type": "Feature", "properties": { "ID": 9828139, "NAME": "RUTHERFORD REGIONAL MEDICAL CENTER", "TYPE": "GENERAL ACUTE CARE", "SOURCE": "https://www2.ncdhhs.gov/dhsr/reports.htm", "VAL_METHOD": "IMAGERY/OTHER", "VAL_DATE": "2014-02-09", "BEDS": 143, "TRAUMA": "NOT AVAILABLE", "HELIPAD": "Y" }, "geometry": { "type": "Point", "coordinates": [ -81.965596, 35.362351 ] } },
{ "type": "Feature", "properties": { "ID": 9928329, "NAME": "SAMPSON REGIONAL MEDICAL CENTER", "TYPE": "GENERAL ACUTE CARE", "SOURCE": "https://www2.ncdhhs.gov/dhsr/reports.htm", "VAL_METHOD": "IMAGERY/OTHER", "VAL_DATE": "2014-02-09", "BEDS": 146, "TRAUMA": "NOT AVAILABLE", "HELIPAD": "Y" }, "geometry": { "type": "Point", "coordinates": [ -78.324488, 35.007183 ] } },
{ "type": "Feature", "properties": { "ID": 3828645, "NAME": "CALDWELL MEMORIAL HOSPITAL", "TYPE": "GENERAL ACUTE CARE", "SOURCE": "https://www2.ncdhhs.gov/dhsr/reports.htm", "VAL_METHOD": "IMAGERY", "VAL_DATE": "2014-02-09", "BEDS": 110, "TRAUMA": "NOT AVAILABLE", "HELIPAD": "Y" }, "geometry": { "type": "Point", "coordinates": [ -81.535161, 35.910607 ] } },
{ "type": "Feature", "properties": { "ID": 8028301, "NAME": "HIGHSMITH-RAINEY SPECIALTY HOSPITAL", "TYPE": "GENERAL ACUTE CARE", "SOURCE": "https://www2.ncdhhs.gov/dhsr/reports.htm", "VAL_METHOD": "IMAGERY/OTHER", "VAL_DATE": "2014-02-09", "BEDS": 66, "TRAUMA": "NOT AVAILABLE", "HELIPAD": "N" }, "geometry": { "type": "Point", "coordinates": [ -78.888154, 35.054303 ] } },
{ "type": "Feature", "properties": { "ID": 9027293, "NAME": "LEXINGTON MEDICAL CENTER", "TYPE": "GENERAL ACUTE CARE", "SOURCE": "https://www2.ncdhhs.gov/dhsr/reports.htm", "VAL_METHOD": "IMAGERY/OTHER", "VAL_DATE": "2014-02-09", "BEDS": 94, "TRAUMA": "NOT AVAILABLE", "HELIPAD": "Y" }, "geometry": { "type": "Point", "coordinates": [ -80.286735, 35.80615 ] } },
{ "type": "Feature", "properties": { "ID": 5728561, "NAME": "CAROLINAEAST MEDICAL CENTER", "TYPE": "GENERAL ACUTE CARE", "SOURCE": "https://www2.ncdhhs.gov/dhsr/reports.htm", "VAL_METHOD": "IMAGERY/OTHER", "VAL_DATE": "2014-02-09", "BEDS": 350, "TRAUMA": "NOT AVAILABLE", "HELIPAD": "Y" }, "geometry": { "type": "Point", "coordinates": [ -77.065943, 35.113402 ] } },
{ "type": "Feature", "properties": { "ID": 10428002, "NAME": "ATRIUM HEALTH STANLY", "TYPE": "GENERAL ACUTE CARE", "SOURCE": "https://www2.ncdhhs.gov/dhsr/reports.htm", "VAL_METHOD": "IMAGERY", "VAL_DATE": "2014-02-09", "BEDS": 109, "TRAUMA": "NOT AVAILABLE", "HELIPAD": "Y" }, "geometry": { "type": "Point", "coordinates": [ -80.194823, 35.364443 ] } },
{ "type": "Feature", "properties": { "ID": 10608820, "NAME": "ANTHONY M YELENCSICS COMMUNITY", "TYPE": "GENERAL ACUTE CARE", "SOURCE": "https://www.state.nj.us/health/healthfacilities/findhospital.shtml", "VAL_METHOD": "IMAGERY", "VAL_DATE": "2014-02-09", "BEDS": 405, "TRAUMA": "NOT AVAILABLE", "HELIPAD": "N" }, "geometry": { "type": "Point", "coordinates": [ -74.350643, 40.556825 ] } },
{ "type": "Feature", "properties": { "ID": 9807733, "NAME": "BAYSHORE MEDICAL CENTER", "TYPE": "GENERAL ACUTE CARE", "SOURCE": "https://www.state.nj.us/health/healthfacilities/findhospital.shtml", "VAL_METHOD": "IMAGERY/OTHER", "VAL_DATE": "2014-02-09", "BEDS": 211, "TRAUMA": "NOT AVAILABLE", "HELIPAD": "Y" }, "geometry": { "type": "Point", "coordinates": [ -74.191684, 40.405161 ] } },
{ "type": "Feature", "properties": { "ID": 7415666, "NAME": "EXCELA HEALTH FRICK HOSPITAL", "TYPE": "GENERAL ACUTE CARE", "SOURCE": "http://sais.health.pa.gov/commonpoc/content/publiccommonpoc/normalsearch.asp", "VAL_METHOD": "IMAGERY", "VAL_DATE": "2014-02-09", "BEDS": 102, "TRAUMA": "NOT AVAILABLE", "HELIPAD": "Y" }, "geometry": { "type": "Point", "coordinates": [ -79.549296, 40.14516 ] } },
{ "type": "Feature", "properties": { "ID": 4116214, "NAME": "CLARION HOSPITAL", "TYPE": "GENERAL ACUTE CARE", "SOURCE": "http://sais.health.pa.gov/commonpoc/content/publiccommonpoc/normalsearch.asp", "VAL_METHOD": "IMAGERY", "VAL_DATE": "2014-02-09", "BEDS": 82, "TRAUMA": "NOT AVAILABLE", "HELIPAD": "Y" }, "geometry": { "type": "Point", "coordinates": [ -79.397664, 41.191989 ] } },
{ "type": "Feature", "properties": { "ID": 23717901, "NAME": "SCHUYLKILL MEDICAL CENTER EAST NORWEGIAN STREET", "TYPE": "GENERAL ACUTE CARE", "SOURCE": "http://sais.health.pa.gov/commonpoc/content/publiccommonpoc/normalsearch.asp", "VAL_METHOD": "IMAGERY", "VAL_DATE": "2014-02-09", "BEDS": 136, "TRAUMA": "NOT AVAILABLE", "HELIPAD": "N" }, "geometry": { "type": "Point", "coordinates": [ -76.18824, 40.690876 ] } },
{ "type": "Feature", "properties": { "ID": 8119111, "NAME": "JEANES HOSPITAL", "TYPE": "GENERAL ACUTE CARE", "SOURCE": "http://sais.health.pa.gov/commonpoc/content/publiccommonpoc/normalsearch.asp", "VAL_METHOD": "IMAGERY", "VAL_DATE": "2014-02-09", "BEDS": 176, "TRAUMA": "NOT AVAILABLE", "HELIPAD": "N" }, "geometry": { "type": "Point", "coordinates": [ -75.087833, 40.070699 ] } },
{ "type": "Feature", "properties": { "ID": 9619143, "NAME": "MERCY PHILADELPHIA HOSPITAL", "TYPE": "GENERAL ACUTE CARE", "SOURCE": "http://sais.health.pa.gov/commonpoc/content/publiccommonpoc/normalsearch.asp", "VAL_METHOD": "IMAGERY", "VAL_DATE": "2014-02-09", "BEDS": 214, "TRAUMA": "NOT AVAILABLE", "HELIPAD": "N" }, "geometry": { "type": "Point", "coordinates": [ -75.229554, 39.951699 ] } },
{ "type": "Feature", "properties": { "ID": 4915801, "NAME": "PENN HIGHLANDS DUBOIS", "TYPE": "GENERAL ACUTE CARE", "SOURCE": "http://sais.health.pa.gov/commonpoc/content/publiccommonpoc/normalsearch.asp", "VAL_METHOD": "IMAGERY", "VAL_DATE": "2014-02-09", "BEDS": 214, "TRAUMA": "NOT AVAILABLE", "HELIPAD": "Y" }, "geometry": { "type": "Point", "coordinates": [ -78.775225, 41.115018 ] } },
{ "type": "Feature", "properties": { "ID": 23317837, "NAME": "EVANGELICAL COMMUNITY HOSPITAL", "TYPE": "GENERAL ACUTE CARE", "SOURCE": "http://sais.health.pa.gov/commonpoc/content/publiccommonpoc/normalsearch.asp", "VAL_METHOD": "IMAGERY", "VAL_DATE": "2014-02-09", "BEDS": 127, "TRAUMA": "NOT AVAILABLE", "HELIPAD": "Y" }, "geometry": { "type": "Point", "coordinates": [ -76.88662, 40.979735 ] } },
{ "type": "Feature", "properties": { "ID": 16818764, "NAME": "WILKES-BARRE GENERAL HOSPITAL", "TYPE": "GENERAL ACUTE CARE", "SOURCE": "http://sais.health.pa.gov/commonpoc/content/publiccommonpoc/normalsearch.asp", "VAL_METHOD": "IMAGERY", "VAL_DATE": "2014-01-09", "BEDS": 412, "TRAUMA": "NOT AVAILABLE", "HELIPAD": "Y" }, "geometry": { "type": "Point", "coordinates": [ -75.867064, 41.258691 ] } },
{ "type": "Feature", "properties": { "ID": 12917866, "NAME": "GEISINGER SHAMOKIN AREA COMMUNITY HOSPITAL", "TYPE": "GENERAL ACUTE CARE", "SOURCE": "http://sais.health.pa.gov/commonpoc/content/publiccommonpoc/normalsearch.asp", "VAL_METHOD": "IMAGERY", "VAL_DATE": "2014-02-09", "BEDS": 55, "TRAUMA": "NOT AVAILABLE", "HELIPAD": "Y" }, "geometry": { "type": "Point", "coordinates": [ -76.570505, 40.805867 ] } },
{ "type": "Feature", "properties": { "ID": 7519046, "NAME": "HOLY REDEEMER HOSPITAL & MEDICAL CENTER", "TYPE": "GENERAL ACUTE CARE", "SOURCE": "http://sais.health.pa.gov/commonpoc/content/publiccommonpoc/normalsearch.asp", "VAL_METHOD": "IMAGERY", "VAL_DATE": "2014-02-09", "BEDS": 242, "TRAUMA": "NOT AVAILABLE", "HELIPAD": "Y" }, "geometry": { "type": "Point", "coordinates": [ -75.082323, 40.109583 ] } },
{ "type": "Feature", "properties": { "ID": 11219464, "NAME": "POTTSTOWN MEMORIAL MEDICAL CENTER", "TYPE": "GENERAL ACUTE CARE", "SOURCE": "http://sais.health.pa.gov/commonpoc/content/publiccommonpoc/normalsearch.asp", "VAL_METHOD": "IMAGERY", "VAL_DATE": "2014-01-12", "BEDS": 224, "TRAUMA": "NOT AVAILABLE", "HELIPAD": "Y" }, "geometry": { "type": "Point", "coordinates": [ -75.612217, 40.242617 ] } },
{ "type": "Feature", "properties": { "ID": 13319401, "NAME": "SUBURBAN COMMUNITY HOSPITAL", "TYPE": "GENERAL ACUTE CARE", "SOURCE": "http://sais.health.pa.gov/commonpoc/content/publiccommonpoc/normalsearch.asp", "VAL_METHOD": "IMAGERY", "VAL_DATE": "2014-02-09", "BEDS": 126, "TRAUMA": "NOT AVAILABLE", "HELIPAD": "Y" }, "geometry": { "type": "Point", "coordinates": [ -75.315902, 40.13984 ] } },
{ "type": "Feature", "properties": { "ID": 17519001, "NAME": "ABINGTON MEMORIAL HOSPITAL", "TYPE": "GENERAL ACUTE CARE", "SOURCE": "http://sais.health.pa.gov/commonpoc/content/publiccommonpoc/normalsearch.asp", "VAL_METHOD": "IMAGERY", "VAL_DATE": "2014-02-09", "BEDS": 665, "TRAUMA": "LEVEL II", "HELIPAD": "Y" }, "geometry": { "type": "Point", "coordinates": [ -75.120999, 40.118895 ] } },
{ "type": "Feature", "properties": { "ID": 19117011, "NAME": "HOLY SPIRIT HOSPITAL", "TYPE": "GENERAL ACUTE CARE", "SOURCE": "http://sais.health.pa.gov/commonpoc/content/publiccommonpoc/normalsearch.asp", "VAL_METHOD": "IMAGERY", "VAL_DATE": "2014-02-09", "BEDS": 319, "TRAUMA": "NOT AVAILABLE", "HELIPAD": "Y" }, "geometry": { "type": "Point", "coordinates": [ -76.92195, 40.254072 ] } },
{ "type": "Feature", "properties": { "ID": 4819026, "NAME": "DELAWARE COUNTY MEMORIAL HOSPITAL", "TYPE": "GENERAL ACUTE CARE", "SOURCE": "http://sais.health.pa.gov/commonpoc/content/publiccommonpoc/normalsearch.asp", "VAL_METHOD": "IMAGERY", "VAL_DATE": "2014-02-09", "BEDS": 225, "TRAUMA": "NOT AVAILABLE", "HELIPAD": "N" }, "geometry": { "type": "Point", "coordinates": [ -75.283604, 39.954758 ] } },
{ "type": "Feature", "properties": { "ID": 13116505, "NAME": "SHRINERS HOSPITALS FOR CHILDREN - ERIE", "TYPE": "GENERAL ACUTE CARE", "SOURCE": "http://sais.health.pa.gov/commonpoc/content/publiccommonpoc/normalsearch.asp", "VAL_METHOD": "IMAGERY", "VAL_DATE": "2014-02-09", "BEDS": 30, "TRAUMA": "NOT AVAILABLE", "HELIPAD": "N" }, "geometry": { "type": "Point", "coordinates": [ -80.120058, 42.113052 ] } },
{ "type": "Feature", "properties": { "ID": 118, "NAME": "ST JOSEPH MEDICAL CENTER-MAIN", "TYPE": "GENERAL ACUTE CARE", "SOURCE": "http://sais.health.pa.gov/commonpoc/content/publiccommonpoc/normalsearch.asp", "VAL_METHOD": "IMAGERY/OTHER", "VAL_DATE": "2015-05-21", "BEDS": 204, "TRAUMA": "NOT AVAILABLE", "HELIPAD": "Y" }, "geometry": { "type": "Point", "coordinates": [ -75.978183, 40.375146 ] } },
{ "type": "Feature", "properties": { "ID": 28516947, "NAME": "TROY COMMUNITY HOSPITAL", "TYPE": "GENERAL ACUTE CARE", "SOURCE": "http://sais.health.pa.gov/commonpoc/content/publiccommonpoc/normalsearch.asp", "VAL_METHOD": "IMAGERY", "VAL_DATE": "2016-09-25", "BEDS": 25, "TRAUMA": "NOT AVAILABLE", "HELIPAD": "Y" }, "geometry": { "type": "Point", "coordinates": [ -76.79429, 41.793611 ] } },
{ "type": "Feature", "properties": { "ID": 8224112, "NAME": "SOVAH HEALTH-MARTINSVILLE", "TYPE": "GENERAL ACUTE CARE", "SOURCE": "http://www.vhi.org", "VAL_METHOD": "IMAGERY", "VAL_DATE": "2014-02-09", "BEDS": 223, "TRAUMA": "NOT AVAILABLE", "HELIPAD": "Y" }, "geometry": { "type": "Point", "coordinates": [ -79.86718, 36.699244 ] } },
{ "type": "Feature", "properties": { "ID": 14423188, "NAME": "SENTARA WILLIAMSBURG REGIONAL MEDICAL CENTER", "TYPE": "GENERAL ACUTE CARE", "SOURCE": "http://www.vhi.org", "VAL_METHOD": "IMAGERY", "VAL_DATE": "2014-02-09", "BEDS": 145, "TRAUMA": "NOT AVAILABLE", "HELIPAD": "Y" }, "geometry": { "type": "Point", "coordinates": [ -76.740892, 37.336321 ] } },
{ "type": "Feature", "properties": { "ID": 3222306, "NAME": "INOVA MOUNT VERNON HOSPITAL", "TYPE": "GENERAL ACUTE CARE", "SOURCE": "http://www.vhi.org", "VAL_METHOD": "IMAGERY", "VAL_DATE": "2014-03-11", "BEDS": 237, "TRAUMA": "NOT AVAILABLE", "HELIPAD": "Y" }, "geometry": { "type": "Point", "coordinates": [ -77.077046, 38.73973 ] } },
{ "type": "Feature", "properties": { "ID": 14922560, "NAME": "RIVERSIDE TAPPAHANNOCK HOSPITAL", "TYPE": "GENERAL ACUTE CARE", "SOURCE": "http://www.vhi.org", "VAL_METHOD": "IMAGERY", "VAL_DATE": "2014-02-09", "BEDS": 67, "TRAUMA": "NOT AVAILABLE", "HELIPAD": "Y" }, "geometry": { "type": "Point", "coordinates": [ -76.878876, 37.901246 ] } },
{ "type": "Feature", "properties": { "ID": 18216830, "NAME": "PENN HIGHLANDS CLEARFIELD", "TYPE": "GENERAL ACUTE CARE", "SOURCE": "http://sais.health.pa.gov/commonpoc/content/publiccommonpoc/normalsearch.asp", "VAL_METHOD": "IMAGERY", "VAL_DATE": "2014-02-09", "BEDS": 96, "TRAUMA": "NOT AVAILABLE", "HELIPAD": "Y" }, "geometry": { "type": "Point", "coordinates": [ -78.449504, 41.032896 ] } },
{ "type": "Feature", "properties": { "ID": 7038008, "NAME": "WEST TENNESSEE HEALTHCARE BOLIVAR HOSPITAL", "TYPE": "GENERAL ACUTE CARE", "SOURCE": "https://apps.health.tn.gov/facilitylistings", "VAL_METHOD": "IMAGERY", "VAL_DATE": "2014-02-09", "BEDS": 25, "TRAUMA": "NOT AVAILABLE", "HELIPAD": "Y" }, "geometry": { "type": "Point", "coordinates": [ -88.999292, 35.267572 ] } },
{ "type": "Feature", "properties": { "ID": 4341339, "NAME": "KENTUCKY RIVER MEDICAL CENTER", "TYPE": "GENERAL ACUTE CARE", "SOURCE": "https://chfs.ky.gov/agencies/os/oig/dhc/documents/directories/hospital_directory.pdf", "VAL_METHOD": "IMAGERY", "VAL_DATE": "2014-02-09", "BEDS": 55, "TRAUMA": "NOT AVAILABLE", "HELIPAD": "Y" }, "geometry": { "type": "Point", "coordinates": [ -83.369621, 37.565887 ] } },
{ "type": "Feature", "properties": { "ID": 640143, "NAME": "BRECKINRIDGE MEMORIAL HOSPITAL", "TYPE": "CRITICAL ACCESS", "SOURCE": "https://chfs.ky.gov/agencies/os/oig/dhc/documents/directories/hospital_directory.pdf", "VAL_METHOD": "IMAGERY/OTHER", "VAL_DATE": "2014-02-09", "BEDS": 25, "TRAUMA": "NOT AVAILABLE", "HELIPAD": "Y" }, "geometry": { "type": "Point", "coordinates": [ -86.44039, 37.76657 ] } },
{ "type": "Feature", "properties": { "ID": 5042276, "NAME": "LOGAN MEMORIAL HOSPITAL", "TYPE": "GENERAL ACUTE CARE", "SOURCE": "https://chfs.ky.gov/agencies/os/oig/dhc/documents/directories/hospital_directory.pdf", "VAL_METHOD": "IMAGERY", "VAL_DATE": "2013-12-18", "BEDS": 75, "TRAUMA": "NOT AVAILABLE", "HELIPAD": "N" }, "geometry": { "type": "Point", "coordinates": [ -86.881502, 36.81571 ] } },
{ "type": "Feature", "properties": { "ID": 10141075, "NAME": "ST. ELIZABETH FT. THOMAS", "TYPE": "GENERAL ACUTE CARE", "SOURCE": "https://chfs.ky.gov/agencies/os/oig/dhc/documents/directories/hospital_directory.pdf", "VAL_METHOD": "IMAGERY", "VAL_DATE": "2014-02-09", "BEDS": 178, "TRAUMA": "NOT AVAILABLE", "HELIPAD": "Y" }, "geometry": { "type": "Point", "coordinates": [ -84.467678, 39.078661 ] } },
{ "type": "Feature", "properties": { "ID": 11942003, "NAME": "BAPTIST HEALTH PADUCAH", "TYPE": "GENERAL ACUTE CARE", "SOURCE": "https://chfs.ky.gov/agencies/os/oig/dhc/documents/directories/hospital_directory.pdf", "VAL_METHOD": "IMAGERY", "VAL_DATE": "2014-02-09", "BEDS": 349, "TRAUMA": "NOT AVAILABLE", "HELIPAD": "Y" }, "geometry": { "type": "Point", "coordinates": [ -88.626597, 37.073759 ] } },
{ "type": "Feature", "properties": { "ID": 427892, "NAME": "MARTIN GENERAL HOSPITAL", "TYPE": "GENERAL ACUTE CARE", "SOURCE": "https://www2.ncdhhs.gov/dhsr/reports.htm", "VAL_METHOD": "IMAGERY", "VAL_DATE": "2014-02-09", "BEDS": 49, "TRAUMA": "NOT AVAILABLE", "HELIPAD": "Y" }, "geometry": { "type": "Point", "coordinates": [ -77.072254, 35.839791 ] } },
{ "type": "Feature", "properties": { "ID": 11828659, "NAME": "WILKES MEDICAL CENTER", "TYPE": "GENERAL ACUTE CARE", "SOURCE": "https://www2.ncdhhs.gov/dhsr/reports.htm", "VAL_METHOD": "IMAGERY/OTHER", "VAL_DATE": "2014-02-09", "BEDS": 130, "TRAUMA": "NOT AVAILABLE", "HELIPAD": "Y" }, "geometry": { "type": "Point", "coordinates": [ -81.157912, 36.159193 ] } },
{ "type": "Feature", "properties": { "ID": 320016, "NAME": "SIBLEY MEMORIAL HOSPITAL", "TYPE": "GENERAL ACUTE CARE", "SOURCE": "http://doh.dc.gov/node/173192", "VAL_METHOD": "IMAGERY", "VAL_DATE": "2014-03-11", "BEDS": 318, "TRAUMA": "NOT AVAILABLE", "HELIPAD": "Y" }, "geometry": { "type": "Point", "coordinates": [ -77.109239, 38.936221 ] } },
{ "type": "Feature", "properties": { "ID": 1742717, "NAME": "CUMBERLAND COUNTY HOSPITAL", "TYPE": "CRITICAL ACCESS", "SOURCE": "https://chfs.ky.gov/agencies/os/oig/dhc/documents/directories/hospital_directory.pdf", "VAL_METHOD": "IMAGERY", "VAL_DATE": "2014-02-09", "BEDS": 25, "TRAUMA": "NOT AVAILABLE", "HELIPAD": "Y" }, "geometry": { "type": "Point", "coordinates": [ -85.372962, 36.796195 ] } },
{ "type": "Feature", "properties": { "ID": 5740962, "NAME": "ADVENTHEALTH MANCHESTER", "TYPE": "GENERAL ACUTE CARE", "SOURCE": "https://chfs.ky.gov/agencies/os/oig/dhc/documents/directories/hospital_directory.pdf", "VAL_METHOD": "IMAGERY", "VAL_DATE": "2014-03-11", "BEDS": 49, "TRAUMA": "NOT AVAILABLE", "HELIPAD": "Y" }, "geometry": { "type": "Point", "coordinates": [ -83.762024, 37.161978 ] } },
{ "type": "Feature", "properties": { "ID": 11142164, "NAME": "THE MEDICAL CENTER AT SCOTTSVILLE", "TYPE": "CRITICAL ACCESS", "SOURCE": "https://chfs.ky.gov/agencies/os/oig/dhc/documents/directories/hospital_directory.pdf", "VAL_METHOD": "IMAGERY", "VAL_DATE": "2014-02-09", "BEDS": 25, "TRAUMA": "NOT AVAILABLE", "HELIPAD": "N" }, "geometry": { "type": "Point", "coordinates": [ -86.214969, 36.761475 ] } },
{ "type": "Feature", "properties": { "ID": 5541647, "NAME": "MCDOWELL ARH HOSPITAL", "TYPE": "CRITICAL ACCESS", "SOURCE": "https://chfs.ky.gov/agencies/os/oig/dhc/documents/directories/hospital_directory.pdf", "VAL_METHOD": "IMAGERY", "VAL_DATE": "2014-02-09", "BEDS": 25, "TRAUMA": "NOT AVAILABLE", "HELIPAD": "N" }, "geometry": { "type": "Point", "coordinates": [ -82.747208, 37.456706 ] } },
{ "type": "Feature", "properties": { "ID": 8841649, "NAME": "ARH OUR LADY OF THE WAY", "TYPE": "CRITICAL ACCESS", "SOURCE": "https://chfs.ky.gov/agencies/os/oig/dhc/documents/directories/hospital_directory.pdf", "VAL_METHOD": "IMAGERY", "VAL_DATE": "2014-02-09", "BEDS": 25, "TRAUMA": "NOT AVAILABLE", "HELIPAD": "N" }, "geometry": { "type": "Point", "coordinates": [ -82.750308, 37.578825 ] } },
{ "type": "Feature", "properties": { "ID": 1142749, "NAME": "THE MEDICAL CENTER AT CAVERNA", "TYPE": "CRITICAL ACCESS", "SOURCE": "https://chfs.ky.gov/agencies/os/oig/dhc/documents/directories/hospital_directory.pdf", "VAL_METHOD": "IMAGERY", "VAL_DATE": "2014-02-09", "BEDS": 25, "TRAUMA": "NOT AVAILABLE", "HELIPAD": "Y" }, "geometry": { "type": "Point", "coordinates": [ -85.923038, 37.161306 ] } },
{ "type": "Feature", "properties": { "ID": 103821061, "NAME": "UMD BALTIMORE WASHINGTON  MEDICAL CENTER", "TYPE": "GENERAL ACUTE CARE", "SOURCE": "http://dhmh.maryland.gov/ohcq/pages/licensee-directory.aspx", "VAL_METHOD": "IMAGERY/OTHER", "VAL_DATE": "2015-02-26", "BEDS": 293, "TRAUMA": "NOT AVAILABLE", "HELIPAD": "Y" }, "geometry": { "type": "Point", "coordinates": [ -76.623239, 39.137668 ] } },
{ "type": "Feature", "properties": { "ID": 104021078, "NAME": "UNIVERSITY OF MD HARFORD MEMORIAL HOSPITAL", "TYPE": "GENERAL ACUTE CARE", "SOURCE": "http://dhmh.maryland.gov/ohcq/pages/licensee-directory.aspx", "VAL_METHOD": "IMAGERY/OTHER", "VAL_DATE": "2015-02-26", "BEDS": 85, "TRAUMA": "NOT AVAILABLE", "HELIPAD": "N" }, "geometry": { "type": "Point", "coordinates": [ -76.090836, 39.543093 ] } },
{ "type": "Feature", "properties": { "ID": 103720735, "NAME": "MEDSTAR SOUTHERN MARYLAND HOSPITAL CENTER", "TYPE": "GENERAL ACUTE CARE", "SOURCE": "http://dhmh.maryland.gov/ohcq/pages/licensee-directory.aspx", "VAL_METHOD": "IMAGERY/OTHER", "VAL_DATE": "2015-02-26", "BEDS": 192, "TRAUMA": "NOT AVAILABLE", "HELIPAD": "Y" }, "geometry": { "type": "Point", "coordinates": [ -76.875832, 38.748137 ] } },
{ "type": "Feature", "properties": { "ID": 183223116, "NAME": "BON SECOURS MEMORIAL REGIONAL MEDICAL CENTER", "TYPE": "GENERAL ACUTE CARE", "SOURCE": "http://www.vhi.org", "VAL_METHOD": "IMAGERY", "VAL_DATE": "2020-05-04", "BEDS": 225, "TRAUMA": "NOT AVAILABLE", "HELIPAD": "Y" }, "geometry": { "type": "Point", "coordinates": [ -77.388211, 37.629048 ] } },
{ "type": "Feature", "properties": { "ID": 6628374, "NAME": "FIRSTHEALTH MOORE REGIONAL HOSPITAL - HOKE CAMPUS", "TYPE": "GENERAL ACUTE CARE", "SOURCE": "https://www2.ncdhhs.gov/dhsr/reports.htm", "VAL_METHOD": "IMAGERY/OTHER", "VAL_DATE": "2014-02-09", "BEDS": 372, "TRAUMA": "NOT AVAILABLE", "HELIPAD": "Y" }, "geometry": { "type": "Point", "coordinates": [ -79.456439, 35.205299 ] } },
{ "type": "Feature", "properties": { "ID": 8608002, "NAME": "JEFFERSON CHERRY HILL HOSPITAL", "TYPE": "GENERAL ACUTE CARE", "SOURCE": "https://www.state.nj.us/health/healthfacilities/findhospital.shtml", "VAL_METHOD": "IMAGERY", "VAL_DATE": "2014-02-09", "BEDS": 196, "TRAUMA": "NOT AVAILABLE", "HELIPAD": "N" }, "geometry": { "type": "Point", "coordinates": [ -75.016123, 39.928205 ] } },
{ "type": "Feature", "properties": { "ID": 8408012, "NAME": "JEFFERSON WASHINGTON TOWNSHIP", "TYPE": "GENERAL ACUTE CARE", "SOURCE": "https://www.state.nj.us/health/healthfacilities/findhospital.shtml", "VAL_METHOD": "IMAGERY/OTHER", "VAL_DATE": "2014-02-09", "BEDS": 230, "TRAUMA": "NOT AVAILABLE", "HELIPAD": "Y" }, "geometry": { "type": "Point", "coordinates": [ -75.065778, 39.735068 ] } },
{ "type": "Feature", "properties": { "ID": 6107112, "NAME": "NEWARK BETH ISRAEL MEDICAL CENTER", "TYPE": "GENERAL ACUTE CARE", "SOURCE": "https://www.state.nj.us/health/healthfacilities/findhospital.shtml", "VAL_METHOD": "IMAGERY", "VAL_DATE": "2014-02-09", "BEDS": 665, "TRAUMA": "NOT AVAILABLE", "HELIPAD": "N" }, "geometry": { "type": "Point", "coordinates": [ -74.211542, 40.709222 ] } },
{ "type": "Feature", "properties": { "ID": 6207102, "NAME": "SAINT MICHAELS MEDICAL CENTER", "TYPE": "GENERAL ACUTE CARE", "SOURCE": "https://www.state.nj.us/health/healthfacilities/findhospital.shtml", "VAL_METHOD": "IMAGERY", "VAL_DATE": "2014-02-09", "BEDS": 358, "TRAUMA": "NOT AVAILABLE", "HELIPAD": "N" }, "geometry": { "type": "Point", "coordinates": [ -74.174121, 40.743581 ] } },
{ "type": "Feature", "properties": { "ID": 8207901, "NAME": "OVERLOOK MEDICAL CENTER", "TYPE": "GENERAL ACUTE CARE", "SOURCE": "https://www.state.nj.us/health/healthfacilities/findhospital.shtml", "VAL_METHOD": "IMAGERY", "VAL_DATE": "2014-02-09", "BEDS": 504, "TRAUMA": "NOT AVAILABLE", "HELIPAD": "Y" }, "geometry": { "type": "Point", "coordinates": [ -74.353784, 40.711787 ] } },
{ "type": "Feature", "properties": { "ID": 8708318, "NAME": "INSPIRA MEDICAL CENTER - ELMER", "TYPE": "GENERAL ACUTE CARE", "SOURCE": "https://www.state.nj.us/health/healthfacilities/findhospital.shtml", "VAL_METHOD": "IMAGERY/OTHER", "VAL_DATE": "2014-03-11", "BEDS": 96, "TRAUMA": "NOT AVAILABLE", "HELIPAD": "Y" }, "geometry": { "type": "Point", "coordinates": [ -75.180631, 39.587859 ] } },
{ "type": "Feature", "properties": { "ID": 10208857, "NAME": "RARITAN BAY MEDICAL CENTER - OLD BRIDGE", "TYPE": "GENERAL ACUTE CARE", "SOURCE": "https://www.state.nj.us/health/healthfacilities/findhospital.shtml", "VAL_METHOD": "IMAGERY/OTHER", "VAL_DATE": "2014-02-09", "BEDS": 113, "TRAUMA": "NOT AVAILABLE", "HELIPAD": "N" }, "geometry": { "type": "Point", "coordinates": [ -74.323392, 40.383138 ] } },
{ "type": "Feature", "properties": { "ID": 6607834, "NAME": "SAINT CLARES HOSPITAL - DENVILLE", "TYPE": "GENERAL ACUTE CARE", "SOURCE": "https://www.state.nj.us/health/healthfacilities/findhospital.shtml", "VAL_METHOD": "IMAGERY", "VAL_DATE": "2014-02-09", "BEDS": 314, "TRAUMA": "NOT AVAILABLE", "HELIPAD": "N" }, "geometry": { "type": "Point", "coordinates": [ -74.465468, 40.895059 ] } },
{ "type": "Feature", "properties": { "ID": 10007701, "NAME": "RIVERVIEW MEDICAL CENTER", "TYPE": "GENERAL ACUTE CARE", "SOURCE": "https://www.state.nj.us/health/healthfacilities/findhospital.shtml", "VAL_METHOD": "IMAGERY", "VAL_DATE": "2014-02-09", "BEDS": 468, "TRAUMA": "NOT AVAILABLE", "HELIPAD": "N" }, "geometry": { "type": "Point", "coordinates": [ -74.063843, 40.353982 ] } },
{ "type": "Feature", "properties": { "ID": 10307728, "NAME": "CENTRASTATE MEDICAL CENTER", "TYPE": "GENERAL ACUTE CARE", "SOURCE": "https://www.state.nj.us/health/healthfacilities/findhospital.shtml", "VAL_METHOD": "IMAGERY", "VAL_DATE": "2014-02-09", "BEDS": 284, "TRAUMA": "NOT AVAILABLE", "HELIPAD": "Y" }, "geometry": { "type": "Point", "coordinates": [ -74.311559, 40.238259 ] } },
{ "type": "Feature", "properties": { "ID": 110308534, "NAME": "CAPITAL HEALTH MEDICAL CENTER - HOPEWELL", "TYPE": "GENERAL ACUTE CARE", "SOURCE": "https://www.state.nj.us/health/healthfacilities/findhospital.shtml", "VAL_METHOD": "IMAGERY/OTHER", "VAL_DATE": "2015-02-08", "BEDS": 221, "TRAUMA": "NOT AVAILABLE", "HELIPAD": "N" }, "geometry": { "type": "Point", "coordinates": [ -74.802923, 40.291987 ] } },
{ "type": "Feature", "properties": { "ID": 18518901, "NAME": "DOYLESTOWN HOSPITAL", "TYPE": "GENERAL ACUTE CARE", "SOURCE": "http://sais.health.pa.gov/commonpoc/content/publiccommonpoc/normalsearch.asp", "VAL_METHOD": "IMAGERY", "VAL_DATE": "2014-02-09", "BEDS": 238, "TRAUMA": "NOT AVAILABLE", "HELIPAD": "Y" }, "geometry": { "type": "Point", "coordinates": [ -75.146101, 40.305902 ] } },
{ "type": "Feature", "properties": { "ID": 17716201, "NAME": "ACMH HOSPITAL", "TYPE": "GENERAL ACUTE CARE", "SOURCE": "http://sais.health.pa.gov/commonpoc/content/publiccommonpoc/normalsearch.asp", "VAL_METHOD": "IMAGERY", "VAL_DATE": "2014-02-09", "BEDS": 155, "TRAUMA": "NOT AVAILABLE", "HELIPAD": "Y" }, "geometry": { "type": "Point", "coordinates": [ -79.562016, 40.808844 ] } },
{ "type": "Feature", "properties": { "ID": 20415237, "NAME": "UPMC PASSAVANT", "TYPE": "GENERAL ACUTE CARE", "SOURCE": "http://sais.health.pa.gov/commonpoc/content/publiccommonpoc/normalsearch.asp", "VAL_METHOD": "IMAGERY", "VAL_DATE": "2014-02-09", "BEDS": 412, "TRAUMA": "NOT AVAILABLE", "HELIPAD": "Y" }, "geometry": { "type": "Point", "coordinates": [ -80.013993, 40.573393 ] } },
{ "type": "Feature", "properties": { "ID": 10416673, "NAME": "CONEMAUGH NASON MEDICAL CENTER", "TYPE": "GENERAL ACUTE CARE", "SOURCE": "http://sais.health.pa.gov/commonpoc/content/publiccommonpoc/normalsearch.asp", "VAL_METHOD": "IMAGERY", "VAL_DATE": "2014-02-09", "BEDS": 45, "TRAUMA": "NOT AVAILABLE", "HELIPAD": "Y" }, "geometry": { "type": "Point", "coordinates": [ -78.388433, 40.338928 ] } },
{ "type": "Feature", "properties": { "ID": 7017331, "NAME": "UPMC HANOVER", "TYPE": "GENERAL ACUTE CARE", "SOURCE": "http://sais.health.pa.gov/commonpoc/content/publiccommonpoc/normalsearch.asp", "VAL_METHOD": "IMAGERY", "VAL_DATE": "2014-02-09", "BEDS": 106, "TRAUMA": "NOT AVAILABLE", "HELIPAD": "Y" }, "geometry": { "type": "Point", "coordinates": [ -76.983191, 39.808793 ] } },
{ "type": "Feature", "properties": { "ID": 25515065, "NAME": "ALLEGHENY VALLEY HOSPITAL", "TYPE": "GENERAL ACUTE CARE", "SOURCE": "http://sais.health.pa.gov/commonpoc/content/publiccommonpoc/normalsearch.asp", "VAL_METHOD": "IMAGERY", "VAL_DATE": "2014-02-09", "BEDS": 228, "TRAUMA": "NOT AVAILABLE", "HELIPAD": "Y" }, "geometry": { "type": "Point", "coordinates": [ -79.736751, 40.618285 ] } },
{ "type": "Feature", "properties": { "ID": 13716354, "NAME": "TITUSVILLE AREA HOSPITAL", "TYPE": "GENERAL ACUTE CARE", "SOURCE": "http://sais.health.pa.gov/commonpoc/content/publiccommonpoc/normalsearch.asp", "VAL_METHOD": "IMAGERY", "VAL_DATE": "2014-02-09", "BEDS": 72, "TRAUMA": "NOT AVAILABLE", "HELIPAD": "N" }, "geometry": { "type": "Point", "coordinates": [ -79.67973, 41.63362 ] } },
{ "type": "Feature", "properties": { "ID": 3117815, "NAME": "GEISINGER-BLOOMSBURG HOSPITAL", "TYPE": "GENERAL ACUTE CARE", "SOURCE": "http://sais.health.pa.gov/commonpoc/content/publiccommonpoc/normalsearch.asp", "VAL_METHOD": "IMAGERY", "VAL_DATE": "2014-02-09", "BEDS": 72, "TRAUMA": "NOT AVAILABLE", "HELIPAD": "Y" }, "geometry": { "type": "Point", "coordinates": [ -76.452273, 41.009512 ] } },
{ "type": "Feature", "properties": { "ID": 8519122, "NAME": "KENSINGTON HOSPITAL", "TYPE": "GENERAL ACUTE CARE", "SOURCE": "http://sais.health.pa.gov/commonpoc/content/publiccommonpoc/normalsearch.asp", "VAL_METHOD": "IMAGERY", "VAL_DATE": "2014-02-11", "BEDS": 45, "TRAUMA": "NOT AVAILABLE", "HELIPAD": "N" }, "geometry": { "type": "Point", "coordinates": [ -75.134628, 39.981699 ] } },
{ "type": "Feature", "properties": { "ID": 7715701, "NAME": "INDIANA REGIONAL MEDICAL CENTER", "TYPE": "GENERAL ACUTE CARE", "SOURCE": "http://sais.health.pa.gov/commonpoc/content/publiccommonpoc/normalsearch.asp", "VAL_METHOD": "IMAGERY", "VAL_DATE": "2014-02-09", "BEDS": 164, "TRAUMA": "NOT AVAILABLE", "HELIPAD": "Y" }, "geometry": { "type": "Point", "coordinates": [ -79.156262, 40.607521 ] } },
{ "type": "Feature", "properties": { "ID": 3917201, "NAME": "CHAMBERSBURG HOSPITAL", "TYPE": "GENERAL ACUTE CARE", "SOURCE": "http://sais.health.pa.gov/commonpoc/content/publiccommonpoc/normalsearch.asp", "VAL_METHOD": "IMAGERY", "VAL_DATE": "2014-02-09", "BEDS": 240, "TRAUMA": "NOT AVAILABLE", "HELIPAD": "Y" }, "geometry": { "type": "Point", "coordinates": [ -77.646136, 39.933978 ] } },
{ "type": "Feature", "properties": { "ID": 7117105, "NAME": "PINNACLEHEALTH HARRISBURG CAMPUS", "TYPE": "GENERAL ACUTE CARE", "SOURCE": "http://sais.health.pa.gov/commonpoc/content/publiccommonpoc/normalsearch.asp", "VAL_METHOD": "IMAGERY", "VAL_DATE": "2014-02-09", "BEDS": 577, "TRAUMA": "NOT AVAILABLE", "HELIPAD": "Y" }, "geometry": { "type": "Point", "coordinates": [ -76.880659, 40.257679 ] } },
{ "type": "Feature", "properties": { "ID": 184428215, "NAME": "NOVANT HEALTH MINT HILL MEDICAL CENTER", "TYPE": "GENERAL ACUTE CARE", "SOURCE": "https://www2.ncdhhs.gov/dhsr/data/hllist.pdf", "VAL_METHOD": "IMAGERY/OTHER", "VAL_DATE": "2020-05-04", "BEDS": 36, "TRAUMA": "NOT AVAILABLE", "HELIPAD": "Y" }, "geometry": { "type": "Point", "coordinates": [ -80.647819, 35.22316 ] } },
{ "type": "Feature", "properties": { "ID": 113, "NAME": "UPMC HORIZON-SHENANGO VALLEY-ER", "TYPE": "GENERAL ACUTE CARE", "SOURCE": "http://sais.health.pa.gov/commonpoc/content/publiccommonpoc/normalsearch.asp", "VAL_METHOD": "IMAGERY/OTHER", "VAL_DATE": "2015-05-21", "BEDS": 28, "TRAUMA": "NOT AVAILABLE", "HELIPAD": "Y" }, "geometry": { "type": "Point", "coordinates": [ -80.469522, 41.210685 ] } },
{ "type": "Feature", "properties": { "ID": 10323294, "NAME": "HENRICO DOCTORS' HOSPITAL - PARHAM", "TYPE": "GENERAL ACUTE CARE", "SOURCE": "http://www.vhi.org", "VAL_METHOD": "IMAGERY", "VAL_DATE": "2014-02-09", "BEDS": 200, "TRAUMA": "NOT AVAILABLE", "HELIPAD": "N" }, "geometry": { "type": "Point", "coordinates": [ -77.526021, 37.63171 ] } },
{ "type": "Feature", "properties": { "ID": 17237748, "NAME": "ROANE MEDICAL CENTER", "TYPE": "GENERAL ACUTE CARE", "SOURCE": "https://apps.health.tn.gov/facilitylistings", "VAL_METHOD": "IMAGERY/OTHER", "VAL_DATE": "2016-11-20", "BEDS": 54, "TRAUMA": "NOT AVAILABLE", "HELIPAD": "Y" }, "geometry": { "type": "Point", "coordinates": [ -84.556007, 35.888605 ] } },
{ "type": "Feature", "properties": { "ID": 11923320, "NAME": "CHESAPEAKE REGIONAL MEDICAL CENTER", "TYPE": "GENERAL ACUTE CARE", "SOURCE": "http://www.vhi.org", "VAL_METHOD": "IMAGERY", "VAL_DATE": "2014-02-09", "BEDS": 310, "TRAUMA": "NOT AVAILABLE", "HELIPAD": "Y" }, "geometry": { "type": "Point", "coordinates": [ -76.246039, 36.745509 ] } },
{ "type": "Feature", "properties": { "ID": 2522304, "NAME": "INOVA ALEXANDRIA HOSPITAL", "TYPE": "GENERAL ACUTE CARE", "SOURCE": "http://www.vhi.org", "VAL_METHOD": "IMAGERY", "VAL_DATE": "2014-02-09", "BEDS": 318, "TRAUMA": "NOT AVAILABLE", "HELIPAD": "Y" }, "geometry": { "type": "Point", "coordinates": [ -77.105535, 38.822124 ] } },
{ "type": "Feature", "properties": { "ID": 7524301, "NAME": "LEWISGALE HOSPITAL PULASKI", "TYPE": "GENERAL ACUTE CARE", "SOURCE": "http://www.vhi.org", "VAL_METHOD": "IMAGERY", "VAL_DATE": "2014-02-09", "BEDS": 135, "TRAUMA": "NOT AVAILABLE", "HELIPAD": "Y" }, "geometry": { "type": "Point", "coordinates": [ -80.757283, 37.068175 ] } },
{ "type": "Feature", "properties": { "ID": 12623505, "NAME": "BON SECOURS DEPAUL MEDICAL CENTER", "TYPE": "GENERAL ACUTE CARE", "SOURCE": "http://www.vhi.org", "VAL_METHOD": "IMAGERY", "VAL_DATE": "2014-02-09", "BEDS": 180, "TRAUMA": "NOT AVAILABLE", "HELIPAD": "Y" }, "geometry": { "type": "Point", "coordinates": [ -76.28162, 36.899485 ] } },
{ "type": "Feature", "properties": { "ID": 13123502, "NAME": "SENTARA LEIGH HOSPITAL", "TYPE": "GENERAL ACUTE CARE", "SOURCE": "http://www.vhi.org", "VAL_METHOD": "IMAGERY", "VAL_DATE": "2014-02-09", "BEDS": 250, "TRAUMA": "NOT AVAILABLE", "HELIPAD": "Y" }, "geometry": { "type": "Point", "coordinates": [ -76.189629, 36.850843 ] } },
{ "type": "Feature", "properties": { "ID": 822630, "NAME": "VALLEY HEALTH WARREN MEMORIAL HOSPITAL", "TYPE": "GENERAL ACUTE CARE", "SOURCE": "http://www.vhi.org", "VAL_METHOD": "IMAGERY", "VAL_DATE": "2014-02-09", "BEDS": 60, "TRAUMA": "NOT AVAILABLE", "HELIPAD": "Y" }, "geometry": { "type": "Point", "coordinates": [ -78.198351, 38.930343 ] } },
{ "type": "Feature", "properties": { "ID": 15623435, "NAME": "BON SECOURS HEALTH CENTER AT HARBOUR VIEW", "TYPE": "GENERAL ACUTE CARE", "SOURCE": "http://www.vhi.org", "VAL_METHOD": "IMAGERY", "VAL_DATE": "2014-02-09", "BEDS": 150, "TRAUMA": "NOT AVAILABLE", "HELIPAD": "N" }, "geometry": { "type": "Point", "coordinates": [ -76.441899, 36.868573 ] } },
{ "type": "Feature", "properties": { "ID": 15723434, "NAME": "LAKEVIEW MEDICAL CENTER", "TYPE": "GENERAL ACUTE CARE", "SOURCE": "http://www.vhi.org", "VAL_METHOD": "IMAGERY", "VAL_DATE": "2014-02-09", "BEDS": 150, "TRAUMA": "NOT AVAILABLE", "HELIPAD": "N" }, "geometry": { "type": "Point", "coordinates": [ -76.59456, 36.760549 ] } },
{ "type": "Feature", "properties": { "ID": 9623847, "NAME": "SOUTHERN VIRGINIA REGIONAL MEDICAL CENTER", "TYPE": "GENERAL ACUTE CARE", "SOURCE": "http://www.vhi.org", "VAL_METHOD": "IMAGERY/OTHER", "VAL_DATE": "2014-02-09", "BEDS": 80, "TRAUMA": "NOT AVAILABLE", "HELIPAD": "Y" }, "geometry": { "type": "Point", "coordinates": [ -77.537683, 36.701576 ] } },
{ "type": "Feature", "properties": { "ID": 1820186, "NAME": "FAUQUIER HOSPITAL", "TYPE": "GENERAL ACUTE CARE", "SOURCE": "http://www.vhi.org", "VAL_METHOD": "IMAGERY", "VAL_DATE": "2014-02-09", "BEDS": 97, "TRAUMA": "NOT AVAILABLE", "HELIPAD": "Y" }, "geometry": { "type": "Point", "coordinates": [ -77.809062, 38.712766 ] } },
{ "type": "Feature", "properties": { "ID": 6424273, "NAME": "WELLMONT MOUNTAIN VIEW REGIONAL MEDICAL CENTER", "TYPE": "GENERAL ACUTE CARE", "SOURCE": "http://www.vhi.org", "VAL_METHOD": "IMAGERY", "VAL_DATE": "2014-02-09", "BEDS": 133, "TRAUMA": "NOT AVAILABLE", "HELIPAD": "Y" }, "geometry": { "type": "Point", "coordinates": [ -82.625464, 36.94446 ] } },
{ "type": "Feature", "properties": { "ID": 6024228, "NAME": "DICKENSON COMMUNITY HOSPITAL AND GREEN OAK BEHAVIORAL HEALTH", "TYPE": "GENERAL ACUTE CARE", "SOURCE": "http://www.vhi.org", "VAL_METHOD": "IMAGERY", "VAL_DATE": "2014-02-09", "BEDS": 25, "TRAUMA": "NOT AVAILABLE", "HELIPAD": "Y" }, "geometry": { "type": "Point", "coordinates": [ -82.449048, 37.160679 ] } },
{ "type": "Feature", "properties": { "ID": 2622205, "NAME": "VIRGINIA HOSPITAL CENTER", "TYPE": "GENERAL ACUTE CARE", "SOURCE": "http://www.vhi.org", "VAL_METHOD": "IMAGERY", "VAL_DATE": "2014-02-09", "BEDS": 334, "TRAUMA": "NOT AVAILABLE", "HELIPAD": "N" }, "geometry": { "type": "Point", "coordinates": [ -77.127278, 38.888882 ] } },
{ "type": "Feature", "properties": { "ID": 8423114, "NAME": "BON SECOURS ST. FRANCIS MEDICAL CENTER", "TYPE": "GENERAL ACUTE CARE", "SOURCE": "http://www.vhi.org", "VAL_METHOD": "IMAGERY", "VAL_DATE": "2014-02-09", "BEDS": 130, "TRAUMA": "NOT AVAILABLE", "HELIPAD": "N" }, "geometry": { "type": "Point", "coordinates": [ -77.65864, 37.466695 ] } },
{ "type": "Feature", "properties": { "ID": 10241097, "NAME": "ST. ELIZABETH GRANT", "TYPE": "CRITICAL ACCESS", "SOURCE": "https://chfs.ky.gov/agencies/os/oig/dhc/documents/directories/hospital_directory.pdf", "VAL_METHOD": "IMAGERY", "VAL_DATE": "2014-02-09", "BEDS": 25, "TRAUMA": "NOT AVAILABLE", "HELIPAD": "Y" }, "geometry": { "type": "Point", "coordinates": [ -84.578168, 38.647204 ] } },
{ "type": "Feature", "properties": { "ID": 19616335, "NAME": "MEADVILLE MEDICAL CENTER", "TYPE": "GENERAL ACUTE CARE", "SOURCE": "http://sais.health.pa.gov/commonpoc/content/publiccommonpoc/normalsearch.asp", "VAL_METHOD": "IMAGERY", "VAL_DATE": "2014-02-09", "BEDS": 217, "TRAUMA": "NOT AVAILABLE", "HELIPAD": "Y" }, "geometry": { "type": "Point", "coordinates": [ -80.145882, 41.641648 ] } },
{ "type": "Feature", "properties": { "ID": 1821239, "NAME": "MEDSTAR GOOD SAMARITAN HOSPITAL", "TYPE": "GENERAL ACUTE CARE", "SOURCE": "http://dhmh.maryland.gov/ohcq/pages/licensee-directory.aspx", "VAL_METHOD": "IMAGERY", "VAL_DATE": "2014-02-09", "BEDS": 287, "TRAUMA": "NOT AVAILABLE", "HELIPAD": "N" }, "geometry": { "type": "Point", "coordinates": [ -76.587283, 39.358396 ] } },
{ "type": "Feature", "properties": { "ID": 3621229, "NAME": "SAINT AGNES HOSPITAL", "TYPE": "GENERAL ACUTE CARE", "SOURCE": "http://dhmh.maryland.gov/ohcq/pages/licensee-directory.aspx", "VAL_METHOD": "IMAGERY", "VAL_DATE": "2014-02-09", "BEDS": 344, "TRAUMA": "NOT AVAILABLE", "HELIPAD": "Y" }, "geometry": { "type": "Point", "coordinates": [ -76.672119, 39.27277 ] } },
{ "type": "Feature", "properties": { "ID": 4921218, "NAME": "MEDSTAR UNION MEMORIAL HOSPITAL", "TYPE": "GENERAL ACUTE CARE", "SOURCE": "http://dhmh.maryland.gov/ohcq/pages/licensee-directory.aspx", "VAL_METHOD": "IMAGERY", "VAL_DATE": "2014-03-11", "BEDS": 238, "TRAUMA": "NOT AVAILABLE", "HELIPAD": "Y" }, "geometry": { "type": "Point", "coordinates": [ -76.614739, 39.32904 ] } },